id,Date/Time,lon,lat,day,hour,minute,second,Full_loc,Address,Street
1,2008-02-02 15:46:08,116.51135,39.93883,2,15,46,8,"39.93883,116.51135","China, Bei Jing Shi, Chao Yang Qu, 姚家园路 邮政编码: 100026", 姚家园路 邮政编码
1,2008-02-02 15:46:08,116.51135,39.93883,2,15,46,8,"39.93883,116.51135","China, Bei Jing Shi, Chao Yang Qu, 姚家园路 邮政编码: 100026", 姚家园路 邮政编码
1,2008-02-02 15:56:08,116.51627,39.91034,2,15,56,8,"39.91034,116.51627","China, Bei Jing Shi, Chao Yang Qu, 建国东路康家沟 邮政编码: 100123", 建国东路康家沟 邮政编码
1,2008-02-02 16:06:08,116.47186,39.91248,2,16,6,8,"39.91248,116.47186","China, Bei Jing Shi, Chao Yang Qu, 光华路甲8号和乔丽致酒店1-3楼 邮政编码: 100026", 光华路甲8号和乔丽致酒店1-3楼 邮政编码
1,2008-02-02 16:16:08,116.47217,39.92498,2,16,16,8,"39.92498,116.47217","3 Chaoyang N Rd, Chao Yang Qu, Bei Jing Shi, China, 100026",3 Chaoyang N Rd
1,2008-02-02 16:26:08,116.47179,39.90718,2,16,26,8,"39.90718,116.47179","China, Bei Jing Shi, Chao Yang Qu, 郎家园15号 邮政编码: 100022", 郎家园15号 邮政编码
1,2008-02-02 16:36:08,116.45617,39.90531,2,16,36,8,"39.90531,116.45617","China, Bei Jing Shi, Chao Yang Qu, 北京市朝阳区建国路88号SOHO现代城4-507 邮政编码: 100020", 北京市朝阳区建国路88号SOHO现代城4-507 邮政编码
1,2008-02-02 17:00:24,116.47191,39.90577,2,17,0,24,"39.90577,116.47191","China, Bei Jing Shi, Chao Yang Qu, 建国路98号盛世嘉园5号楼 邮政编码: 100022", 建国路98号盛世嘉园5号楼 邮政编码
1,2008-02-02 17:10:24,116.50661,39.9145,2,17,10,24,"39.9145,116.50661","2-4-3 Shi Li Pu, Chao Yang Qu, Bei Jing Shi, China, 100123",2-4-3 Shi Li Pu
1,2008-02-02 20:30:34,116.49625,39.9146,2,20,30,34,"39.9146,116.49625","China, Bei Jing Shi, Chao Yang Qu, 八里庄东里1号莱锦创意产业园CN18号 邮政编码: 100123", 八里庄东里1号莱锦创意产业园CN18号 邮政编码
1,2008-02-02 20:40:33,116.50962,39.91071,2,20,40,33,"39.91071,116.50962","China, Bei Jing Shi, Chao Yang Qu, CN 北京市 朝阳区 八里庄陈家林 2 甲2号尚8里文创园A座111 邮政编码: 100123", CN 北京市 朝阳区 八里庄陈家林 2 甲2号尚8里文创园A座111 邮政编码
1,2008-02-02 20:50:33,116.52231,39.91588,2,20,50,33,"39.91588,116.52231","10 Xing Long Jia Yuan, Chao Yang Qu, Bei Jing Shi, China, 100123",10 Xing Long Jia Yuan
1,2008-02-02 20:50:33,116.52231,39.91588,2,20,50,33,"39.91588,116.52231","10 Xing Long Jia Yuan, Chao Yang Qu, Bei Jing Shi, China, 100123",10 Xing Long Jia Yuan
1,2008-02-03 11:10:29,116.54256,39.91501,3,11,10,29,"39.91501,116.54256","China, Bei Jing Shi, Chao Yang Qu, 朝阳路 邮政编码: 100024", 朝阳路 邮政编码
1,2008-02-03 11:20:28,116.51629,39.90905,3,11,20,28,"39.90905,116.51629","China, Bei Jing Shi, Chao Yang Qu, 四惠东地铁站B出口 邮政编码: 100123", 四惠东地铁站B出口 邮政编码
1,2008-02-03 11:30:29,116.49705,39.90693,3,11,30,29,"39.90693,116.49705","China, Bei Jing Shi, Chao Yang Qu, 四惠站 邮政编码: 100123", 四惠站 邮政编码
1,2008-02-03 11:40:29,116.43653,39.90566,3,11,40,29,"39.90566,116.43653","China, Bei Jing Shi, Chao Yang Qu, 建国门南大街 邮政编码: 100005", 建国门南大街 邮政编码
1,2008-02-03 12:00:29,116.45551,39.88319,3,12,0,29,"39.88319,116.45551","China, Bei Jing Shi, Chao Yang Qu, 劲松中街 邮政编码: 100021", 劲松中街 邮政编码
1,2008-02-04 10:45:09,116.53787,39.915,4,10,45,9,"39.915,116.53787","China, Bei Jing Shi, Chao Yang Qu, 大黄庄南里路东 邮政编码: 100024", 大黄庄南里路东 邮政编码
1,2008-02-04 10:55:09,116.50839,39.90916,4,10,55,9,"39.90916,116.50839","China, Bei Jing Shi, Chao Yang Qu, 建国路惠生园12幢八单元 邮政编码: 100123", 建国路惠生园12幢八单元 邮政编码
1,2008-02-04 11:05:09,116.5094,39.90679,4,11,5,9,"39.90679,116.5094","China, Bei Jing Shi, Chao Yang Qu, 建国路 邮政编码: 100123", 建国路 邮政编码
1,2008-02-04 17:28:21,116.47511,39.91397,4,17,28,21,"39.91397,116.47511","China, Bei Jing Shi, Chao Yang Qu, 呼家楼光华路 邮政编码: 100026", 呼家楼光华路 邮政编码
1,2008-02-04 17:28:21,116.47511,39.91397,4,17,28,21,"39.91397,116.47511","China, Bei Jing Shi, Chao Yang Qu, 呼家楼光华路 邮政编码: 100026", 呼家楼光华路 邮政编码
1,2008-02-04 17:38:21,116.51175,39.9155,4,17,38,21,"39.9155,116.51175","China, Bei Jing Shi, Chao Yang Qu, 甘露园3号 邮政编码: 100123", 甘露园3号 邮政编码
1,2008-02-05 10:28:33,116.49968,39.91468,5,10,28,33,"39.91468,116.49968","China, Bei Jing Shi, Chao Yang Qu, CN 北京市 朝阳区 八里庄东里 1 1号莱锦文化创意产业园A院 邮政编码: 100123", CN 北京市 朝阳区 八里庄东里 1 1号莱锦文化创意产业园A院 邮政编码
1,2008-02-05 10:38:33,116.45678,39.91749,5,10,38,33,"39.91749,116.45678","China, Bei Jing Shi, Chao Yang Qu, 朝阳门外大街6-11-105号 邮政编码: 100020", 朝阳门外大街6-11-105号 邮政编码
1,2008-02-05 10:58:33,116.46352,39.91971,5,10,58,33,"39.91971,116.46352","6 Hu Jia Lou Xi Li Nan Jie, 呼家楼 Chao Yang Qu, Bei Jing Shi, China, 100020",6 Hu Jia Lou Xi Li Nan Jie
1,2008-02-05 11:12:36,116.45519,39.91569,5,11,12,36,"39.91569,116.45519","China, Bei Jing Shi, Chao Yang Qu, 北四环73号未来广场B2楼 邮政编码: 100020", 北四环73号未来广场B2楼 邮政编码
1,2008-02-05 11:18:34,116.46086,39.9162,5,11,18,34,"39.9162,116.46086","China, Bei Jing Shi, Chao Yang Qu, 东三环中路辅路 邮政编码: 100020", 东三环中路辅路 邮政编码
1,2008-02-05 11:28:33,116.4741,39.91413,5,11,28,33,"39.91413,116.4741","2 Hong Miao Xi Li, 呼家楼 Chao Yang Qu, Bei Jing Shi, China, 100026",2 Hong Miao Xi Li
1,2008-02-05 11:38:33,116.51525,39.9159,5,11,38,33,"39.9159,116.51525","China, Bei Jing Shi, Chao Yang Qu, 高碑店甘露园南里一区1号楼 邮政编码: 100123", 高碑店甘露园南里一区1号楼 邮政编码
1,2008-02-05 15:01:23,116.49344,39.91441,5,15,1,23,"39.91441,116.49344","China, Bei Jing Shi, Chao Yang Qu, 八里庄100号住邦2000商务中心2号楼216号 邮政编码: 100123", 八里庄100号住邦2000商务中心2号楼216号 邮政编码
1,2008-02-05 15:21:21,116.52989,39.91537,5,15,21,21,"39.91537,116.52989","China, Bei Jing Shi, Chao Yang Qu, Xinglong St, 高井甲1号 邮政编码: 100123", Xinglong St
1,2008-02-05 15:31:21,116.47556,39.92172,5,15,31,21,"39.92172,116.47556","China, Bei Jing Shi, Chao Yang Qu, 呼家楼金台路2-20号 邮政编码: 100026", 呼家楼金台路2-20号 邮政编码
1,2008-02-05 15:41:21,116.45419,39.95203,5,15,41,21,"39.95203,116.45419","China, Bei Jing Shi, Chao Yang Qu, 新源街18号 邮政编码: 100027", 新源街18号 邮政编码
1,2008-02-05 15:51:21,116.46794,39.94389,5,15,51,21,"39.94389,116.46794","China, Bei Jing Shi, Chao Yang Qu, 农展馆北路 邮政编码: 100026", 农展馆北路 邮政编码
1,2008-02-05 16:11:21,116.46175,39.99519,5,16,11,21,"39.99519,116.46175","China, Bei Jing Shi, Chao Yang Qu, Nanhu S Rd, 9号圣馨大地2号楼鸿瑞源宾馆 邮政编码: 100102", Nanhu S Rd
1,2008-02-05 16:11:21,116.46175,39.99519,5,16,11,21,"39.99519,116.46175","China, Bei Jing Shi, Chao Yang Qu, Nanhu S Rd, 9号圣馨大地2号楼鸿瑞源宾馆 邮政编码: 100102", Nanhu S Rd
1,2008-02-05 16:21:21,116.46455,39.96358,5,16,21,21,"39.96358,116.46455","China, Bei Jing Shi, Chao Yang Qu, 霄云路132号 邮政编码: 100028", 霄云路132号 邮政编码
1,2008-02-05 16:31:21,116.45348,39.92281,5,16,31,21,"39.92281,116.45348","China, Bei Jing Shi, Chao Yang Qu, 关东店北街 邮政编码: 100020", 关东店北街 邮政编码
1,2008-02-05 16:41:21,116.47822,39.92153,5,16,41,21,"39.92153,116.47822","China, Bei Jing Shi, Chao Yang Qu, 金台路 邮政编码: 100026", 金台路 邮政编码
1,2008-02-05 16:51:21,116.46432,39.9139,5,16,51,21,"39.9139,116.46432","China, Bei Jing Shi, Chao Yang Qu, 呼家楼光华路 邮政编码: 100020", 呼家楼光华路 邮政编码
1,2008-02-05 17:01:21,116.43523,39.92163,5,17,1,21,"39.92163,116.43523","China, Bei Jing Shi, Chao Yang Qu, 朝外soho麻雀胡同0123号 邮政编码: 100010", 朝外soho麻雀胡同0123号 邮政编码
1,2008-02-05 17:11:21,116.43161,39.92234,5,17,11,21,"39.92234,116.43161","China, Bei Jing Shi, Dong Cheng Qu, Chaoyangmen, Nanshuiguan Hu Tong, 东水井胡同5号北京INN2号楼B区8层 邮政编码: 100010", Chaoyangmen
1,2008-02-05 17:21:21,116.42843,39.90776,5,17,21,21,"39.90776,116.42843","China, Bei Jing Shi, Dong Cheng Qu, 建内大街8号 邮政编码: 100005", 建内大街8号 邮政编码
1,2008-02-05 17:31:20,116.4277,39.93528,5,17,31,20,"39.93528,116.4277","China, Bei Jing Shi, Dong Cheng Qu, Dongsi Subdistrict, Beijing, 南颂年胡同5号 邮政编码: 100010", Dongsi Subdistrict
1,2008-02-05 17:41:21,116.41563,39.9462,5,17,41,21,"39.9462,116.41563","China, Bei Jing Shi, Dong Cheng Qu, 国子监 Guanshuyuan Hu Tong, 官书院胡同甲40 邮政编码: 100011", 国子监 Guanshuyuan Hu Tong
1,2008-02-05 18:01:21,116.4546,39.98414,5,18,1,21,"39.98414,116.4546","China, Bei Jing Shi, Chao Yang Qu, 北四环东路 邮政编码: 100028", 北四环东路 邮政编码
1,2008-02-05 18:11:21,116.46,39.98753,5,18,11,21,"39.98753,116.46","110 Hua Jia Di Xi Li, Chao Yang Qu, Bei Jing Shi, China, 100028",110 Hua Jia Di Xi Li
1,2008-02-05 18:21:21,116.48006,39.95789,5,18,21,21,"39.95789,116.48006","China, Bei Jing Shi, Chao Yang Qu, 亮马桥路21号 邮政编码: 100125", 亮马桥路21号 邮政编码
1,2008-02-05 18:31:21,116.47179,39.92762,5,18,31,21,"39.92762,116.47179","China, Bei Jing Shi, Chao Yang Qu, 团结湖中路 邮政编码: 100026", 团结湖中路 邮政编码
1,2008-02-05 18:41:20,116.50407,39.9147,5,18,41,20,"39.9147,116.50407","China, Bei Jing Shi, Chao Yang Qu, 十里堡铁道桥东边 邮政编码: 100123", 十里堡铁道桥东边 邮政编码
1,2008-02-06 10:35:37,116.51523,39.91522,6,10,35,37,"39.91522,116.51523","China, Bei Jing Shi, Chao Yang Qu, 甘露园南里二区1号楼底商 邮政编码: 100123", 甘露园南里二区1号楼底商 邮政编码
1,2008-02-06 13:57:44,116.47354,39.98849,6,13,57,44,"39.98849,116.47354","China, Bei Jing Shi, Chao Yang Qu, 望京东路10-4号 邮政编码: 100102", 望京东路10-4号 邮政编码
1,2008-02-06 14:07:43,116.47272,39.99651,6,14,7,43,"39.99651,116.47272","412 Wang Jing Xi Yuan, Chao Yang Qu, Bei Jing Shi, China, 100102",412 Wang Jing Xi Yuan
1,2008-02-06 14:17:43,116.47284,39.97043,6,14,17,43,"39.97043,116.47284","China, Bei Jing Shi, Chao Yang Qu, 四元桥 邮政编码: 100016", 四元桥 邮政编码
1,2008-02-06 14:27:43,116.48347,39.91296,6,14,27,43,"39.91296,116.48347","China, Bei Jing Shi, Chao Yang Qu, 八里庄西里远洋天地71号楼 邮政编码: 100026", 八里庄西里远洋天地71号楼 邮政编码
1,2008-02-06 14:37:43,116.42589,39.85721,6,14,37,43,"39.85721,116.42589","China, Bei Jing Shi, Feng Tai Qu, 南三环东路辅路 邮政编码: 100079", 南三环东路辅路 邮政编码
1,2008-02-06 14:57:43,116.41487,39.85573,6,14,57,43,"39.85573,116.41487","China, Bei Jing Shi, Feng Tai Qu, 光彩路赵公口7号,南三环赵公口桥南侧50米路西 邮政编码: 100075", 光彩路赵公口7号
1,2008-02-06 15:07:43,116.46671,39.86658,6,15,7,43,"39.86658,116.46671","China, Bei Jing Shi, Chao Yang Qu, 西燕窝18号 邮政编码: 100122", 西燕窝18号 邮政编码
1,2008-02-06 15:17:43,116.48331,39.89127,6,15,17,43,"39.89127,116.48331","16 Dajiaoting N St, Chao Yang Qu, Bei Jing Shi, China, 100124",16 Dajiaoting N St
1,2008-02-06 15:47:43,116.48364,39.89959,6,15,47,43,"39.89959,116.48364","China, Bei Jing Shi, Chao Yang Qu, CN 北京市 朝阳区 百子湾南一路 6-C 单元1层105 邮政编码: 100124", CN 北京市 朝阳区 百子湾南一路 6-C 单元1层105 邮政编码
1,2008-02-06 15:57:43,116.51238,39.91654,6,15,57,43,"39.91654,116.51238","1 Gan Lu Yuan Fang Jing Yuan, Chao Yang Qu, Bei Jing Shi, China, 100123",1 Gan Lu Yuan Fang Jing Yuan
1,2008-02-06 19:21:22,116.51167,39.92152,6,19,21,22,"39.92152,116.51167","China, Bei Jing Shi, Chao Yang Qu, 新平北路大市场内 邮政编码: 100026", 新平北路大市场内 邮政编码
1,2008-02-06 19:31:21,116.51127,39.93078,6,19,31,21,"39.93078,116.51127","China, Bei Jing Shi, Chao Yang Qu, 青年路29-5-13号 邮政编码: 100026", 青年路29-5-13号 邮政编码
1,2008-02-07 11:11:28,116.53903,39.91508,7,11,11,28,"39.91508,116.53903","China, Bei Jing Shi, Chao Yang Qu, CN 北京市 朝阳区 朝阳路 8 红星美凯龙2楼 邮政编码: 100024", CN 北京市 朝阳区 朝阳路 8 红星美凯龙2楼 邮政编码
1,2008-02-07 14:34:35,116.48572,39.93235,7,14,34,35,"39.93235,116.48572","China, Bei Jing Shi, Chao Yang Qu, 姚家园路118号东郊汽配城B05-07号 邮政编码: 100026", 姚家园路118号东郊汽配城B05-07号 邮政编码
1,2008-02-07 14:44:35,116.51471,39.91661,7,14,44,35,"39.91661,116.51471","China, Bei Jing Shi, Chao Yang Qu, 八里庄 邮政编码: 100123", 八里庄 邮政编码
1,2008-02-07 18:24:52,116.4847,39.91423,7,18,24,52,"39.91423,116.4847","China, Bei Jing Shi, Chao Yang Qu, 慈云寺14号 邮政编码: 100026", 慈云寺14号 邮政编码
1,2008-02-07 18:34:52,116.51731,39.91134,7,18,34,52,"39.91134,116.51731","11 Kang Jia Yuan, Chao Yang Qu, Bei Jing Shi, China, 100123",11 Kang Jia Yuan
1,2008-02-08 14:21:31,116.52195,39.916,8,14,21,31,"39.916,116.52195","China, Bei Jing Shi, Chao Yang Qu, 十里堡综合楼一层 邮政编码: 100123", 十里堡综合楼一层 邮政编码
1,2008-02-08 14:31:31,116.48503,39.91422,8,14,31,31,"39.91422,116.48503","China, Bei Jing Shi, Chao Yang Qu, 慈云寺2号 邮政编码: 100026", 慈云寺2号 邮政编码
1,2008-02-08 14:41:32,116.4446,39.92156,8,14,41,32,"39.92156,116.4446","6 Tian Fu Yuan, Chao Yang Qu, Bei Jing Shi, China, 100020",6 Tian Fu Yuan
1,2008-02-08 14:51:32,116.40047,39.92594,8,14,51,32,"39.92594,116.40047","55 Shatan Back St, Dong Cheng Qu, Bei Jing Shi, China, 100006",55 Shatan Back St
1,2008-02-08 15:01:31,116.44152,39.93236,8,15,1,31,"39.93236,116.44152","China, Bei Jing Shi, Dong Cheng Qu, 三里屯工体东路 邮政编码: 100010", 三里屯工体东路 邮政编码
1,2008-02-08 15:11:31,116.48347,39.91954,8,15,11,31,"39.91954,116.48347","China, Bei Jing Shi, Chao Yang Qu, 红庙北里 邮政编码: 100026", 红庙北里 邮政编码
1,2008-02-08 15:21:31,116.50789,39.93128,8,15,21,31,"39.93128,116.50789","China, Bei Jing Shi, Chao Yang Qu, 十里堡号炫特嘉园3C底商 邮政编码: 100026", 十里堡号炫特嘉园3C底商 邮政编码
10,2008-02-02 13:32:03,116.44457,39.92157,2,13,32,3,"39.92157,116.44457","6 Tian Fu Yuan, Chao Yang Qu, Bei Jing Shi, China, 100020",6 Tian Fu Yuan
10,2008-02-02 13:33:58,116.44043,39.9219,2,13,33,58,"39.9219,116.44043","China, Bei Jing Shi, Chao Yang Qu, 三丰北里2号悠唐生活广场内 邮政编码: 100010", 三丰北里2号悠唐生活广场内 邮政编码
10,2008-02-02 13:34:25,116.4404,39.92192,2,13,34,25,"39.92192,116.4404","China, Bei Jing Shi, Chao Yang Qu, 三丰北里2号楼悠唐生活广场B1-B15号 邮政编码: 100010", 三丰北里2号楼悠唐生活广场B1-B15号 邮政编码
10,2008-02-02 13:35:08,116.43528,39.9228,2,13,35,8,"39.9228,116.43528","227 Chaoyangmen Outer St, Chao Yang Qu, Bei Jing Shi, China, 100010",227 Chaoyangmen Outer St
10,2008-02-02 13:36:03,116.43523,39.92287,2,13,36,3,"39.92287,116.43523","227 Chaoyangmen Outer St, Chao Yang Qu, Bei Jing Shi, China, 100010",227 Chaoyangmen Outer St
10,2008-02-02 13:36:58,116.42965,39.92307,2,13,36,58,"39.92307,116.42965","China, Bei Jing Shi, Dong Cheng Qu, Chaoyangmen, 南竹杆胡同3号 邮政编码: 100010", Chaoyangmen
10,2008-02-02 13:38:02,116.42955,39.92313,2,13,38,2,"39.92313,116.42955","China, Bei Jing Shi, Dong Cheng Qu, Chaoyangmen, 南竹杆胡同3号 邮政编码: 100010", Chaoyangmen
10,2008-02-02 13:38:20,116.42842,39.92335,2,13,38,20,"39.92335,116.42842","China, Bei Jing Shi, Dong Cheng Qu, Chaoyangmen, 北竹杆胡同8号 邮政编码: 100010", Chaoyangmen
10,2008-02-02 13:38:27,116.42767,39.92328,2,13,38,27,"39.92328,116.42767","China, Bei Jing Shi, Dong Cheng Qu, Chaoyangmen, 南竹杆胡同9号 邮政编码: 100010", Chaoyangmen
10,2008-02-02 13:39:05,116.42393,39.92312,2,13,39,5,"39.92312,116.42393","China, Bei Jing Shi, Dong Cheng Qu, Chaoyangmen, 后拐棒胡同22号 邮政编码: 100010", Chaoyangmen
10,2008-02-02 13:39:05,116.42393,39.92312,2,13,39,5,"39.92312,116.42393","China, Bei Jing Shi, Dong Cheng Qu, Chaoyangmen, 后拐棒胡同22号 邮政编码: 100010", Chaoyangmen
10,2008-02-02 13:39:08,116.42387,39.92312,2,13,39,8,"39.92312,116.42387","China, Bei Jing Shi, Dong Cheng Qu, Chaoyangmen, 后拐棒胡同24号院 邮政编码: 100010", Chaoyangmen
10,2008-02-02 13:39:16,116.42358,39.92313,2,13,39,16,"39.92313,116.42358","China, Bei Jing Shi, Dong Cheng Qu, Chaoyangmen, 后拐棒胡同49号 邮政编码: 100010", Chaoyangmen
10,2008-02-02 13:40:34,116.4212,39.92305,2,13,40,34,"39.92305,116.4212","28 Qianguaibang Hu Tong, Dong Cheng Qu, Bei Jing Shi, China, 100005",28 Qianguaibang Hu Tong
10,2008-02-02 13:41:13,116.42112,39.92315,2,13,41,13,"39.92315,116.42112","28 Qianguaibang Hu Tong, Dong Cheng Qu, Bei Jing Shi, China, 100005",28 Qianguaibang Hu Tong
10,2008-02-02 13:42:29,116.41175,39.92298,2,13,42,29,"39.92298,116.41175","China, Bei Jing Shi, Dong Cheng Qu, 多福巷32号 邮政编码: 100006", 多福巷32号 邮政编码
10,2008-02-02 13:44:20,116.40547,39.9229,2,13,44,20,"39.9229,116.40547","China, Bei Jing Shi, Dong Cheng Qu, 北沿河大街 邮政编码: 100006", 北沿河大街 邮政编码
10,2008-02-02 13:45:56,116.40498,39.92292,2,13,45,56,"39.92292,116.40498","China, Bei Jing Shi, Dong Cheng Qu, 沙滩南巷17号 邮政编码: 100006", 沙滩南巷17号 邮政编码
10,2008-02-02 13:47:01,116.40473,39.92293,2,13,47,1,"39.92293,116.40473","China, Bei Jing Shi, Dong Cheng Qu, 沙滩南巷17号 邮政编码: 100006", 沙滩南巷17号 邮政编码
10,2008-02-02 13:47:50,116.40473,39.92287,2,13,47,50,"39.92287,116.40473","China, Bei Jing Shi, Dong Cheng Qu, 沙滩南巷17号 邮政编码: 100006", 沙滩南巷17号 邮政编码
10,2008-02-02 13:47:53,116.40465,39.92275,2,13,47,53,"39.92275,116.40465","China, Bei Jing Shi, Dong Cheng Qu, 北河沿大街103号 邮政编码: 100006", 北河沿大街103号 邮政编码
10,2008-02-02 13:48:08,116.40463,39.92123,2,13,48,8,"39.92123,116.40463","China, Bei Jing Shi, Dong Cheng Qu, 银闸胡同20-8号 邮政编码: 100006", 银闸胡同20-8号 邮政编码
10,2008-02-02 13:48:55,116.40462,39.91708,2,13,48,55,"39.91708,116.40462","98 Wangfujing Ave, Dong Cheng Qu, Bei Jing Shi, China, 100006",98 Wangfujing Ave
10,2008-02-02 13:48:58,116.40437,39.91707,2,13,48,58,"39.91707,116.40437","98 Wangfujing Ave, Dong Cheng Qu, Bei Jing Shi, China, 100006",98 Wangfujing Ave
10,2008-02-02 13:50:13,116.40043,39.91413,2,13,50,13,"39.91413,116.40043","37 Donghuamen St, Dong Cheng Qu, Bei Jing Shi, China, 100006",37 Donghuamen St
10,2008-02-02 13:50:13,116.40043,39.91413,2,13,50,13,"39.91413,116.40043","37 Donghuamen St, Dong Cheng Qu, Bei Jing Shi, China, 100006",37 Donghuamen St
10,2008-02-02 13:50:22,116.40043,39.91407,2,13,50,22,"39.91407,116.40043","37 Donghuamen St, Dong Cheng Qu, Bei Jing Shi, China, 100006",37 Donghuamen St
10,2008-02-02 15:49:36,116.39842,39.91143,2,15,49,36,"39.91143,116.39842","China, Bei Jing Shi, Dong Cheng Qu, Working People's Culture Palace CN 北京市 东城区 天安门东侧 邮政编码: 100006", Working People's Culture Palace CN 北京市 东城区 天安门东侧 邮政编码
10,2008-02-02 15:50:41,116.3971,39.91373,2,15,50,41,"39.91373,116.3971","China, Bei Jing Shi, Dong Cheng Qu, 景山前街4号 邮政编码: 100006", 景山前街4号 邮政编码
10,2008-02-02 15:51:09,116.40035,39.91378,2,15,51,9,"39.91378,116.40035","37 Donghuamen St, Dong Cheng Qu, Bei Jing Shi, China, 100006",37 Donghuamen St
10,2008-02-02 15:52:54,116.40048,39.90757,2,15,52,54,"39.90757,116.40048","China, Bei Jing Shi, Dong Cheng Qu, 前门天安门东（劳动人民文化宫东北角） 邮政编码: 100051", 前门天安门东（劳动人民文化宫东北角） 邮政编码
10,2008-02-02 15:54:43,116.40028,39.90628,2,15,54,43,"39.90628,116.40028","China, Bei Jing Shi, Dong Cheng Qu, 前门北京古玩城一层西厅10号 邮政编码: 100051", 前门北京古玩城一层西厅10号 邮政编码
10,2008-02-02 15:55:41,116.40052,39.90238,2,15,55,41,"39.90238,116.40052","China, Bei Jing Shi, Dong Cheng Qu, 前门东交民巷39 邮政编码: 100051", 前门东交民巷39 邮政编码
10,2008-02-02 15:57:55,116.40092,39.89885,2,15,57,55,"39.89885,116.40092","China, Bei Jing Shi, Dong Cheng Qu, 西打磨厂街 邮政编码: 100051", 西打磨厂街 邮政编码
10,2008-02-02 15:58:01,116.40102,39.89885,2,15,58,1,"39.89885,116.40102","China, Bei Jing Shi, Dong Cheng Qu, 西打磨厂街 邮政编码: 100051", 西打磨厂街 邮政编码
10,2008-02-02 15:58:04,116.4012,39.89888,2,15,58,4,"39.89888,116.4012","China, Bei Jing Shi, Dong Cheng Qu, 西打磨厂街 邮政编码: 100051", 西打磨厂街 邮政编码
10,2008-02-02 15:58:24,116.40372,39.89925,2,15,58,24,"39.89925,116.40372","China, Bei Jing Shi, Dong Cheng Qu, 西打磨厂街197号 邮政编码: 100051", 西打磨厂街197号 邮政编码
10,2008-02-02 15:58:28,116.40395,39.89915,2,15,58,28,"39.89915,116.40395","China, Bei Jing Shi, Dong Cheng Qu, 西打磨厂街南198号院 邮政编码: 100051", 西打磨厂街南198号院 邮政编码
10,2008-02-02 15:58:43,116.40548,39.89908,2,15,58,43,"39.89908,116.40548","China, Bei Jing Shi, Dong Cheng Qu, 西打磨厂街东8号院 邮政编码: 100051", 西打磨厂街东8号院 邮政编码
10,2008-02-02 15:58:46,116.40555,39.89893,2,15,58,46,"39.89893,116.40555","China, Bei Jing Shi, Dong Cheng Qu, 西打磨厂街南170号院 邮政编码: 100051", 西打磨厂街南170号院 邮政编码
10,2008-02-02 15:59:23,116.40575,39.89578,2,15,59,23,"39.89578,116.40575","China, Bei Jing Shi, Dong Cheng Qu, 草厂二条25号 邮政编码: 100051", 草厂二条25号 邮政编码
10,2008-02-02 15:59:30,116.4058,39.89572,2,15,59,30,"39.89572,116.4058","China, Bei Jing Shi, Dong Cheng Qu, 草厂二条32号 邮政编码: 100051", 草厂二条32号 邮政编码
10,2008-02-02 15:59:33,116.40595,39.89567,2,15,59,33,"39.89567,116.40595","China, Bei Jing Shi, Dong Cheng Qu, 草厂二条32号 邮政编码: 100051", 草厂二条32号 邮政编码
10,2008-02-02 15:59:54,116.40773,39.89573,2,15,59,54,"39.89573,116.40773","China, Bei Jing Shi, Dong Cheng Qu, 草厂横胡同23号 邮政编码: 100051", 草厂横胡同23号 邮政编码
10,2008-02-02 16:00:35,116.40897,39.89568,2,16,0,35,"39.89568,116.40897","China, Bei Jing Shi, Dong Cheng Qu, 草厂九条24号 邮政编码: 100051", 草厂九条24号 邮政编码
10,2008-02-02 16:00:35,116.40897,39.89568,2,16,0,35,"39.89568,116.40897","China, Bei Jing Shi, Dong Cheng Qu, 草厂九条24号 邮政编码: 100051", 草厂九条24号 邮政编码
10,2008-02-02 16:00:49,116.40902,39.89555,2,16,0,49,"39.89555,116.40902","China, Bei Jing Shi, Dong Cheng Qu, 草厂八九条34号 邮政编码: 100051", 草厂八九条34号 邮政编码
10,2008-02-02 16:00:52,116.40897,39.89552,2,16,0,52,"39.89552,116.40897","China, Bei Jing Shi, Dong Cheng Qu, 草厂八九条34号 邮政编码: 100051", 草厂八九条34号 邮政编码
10,2008-02-02 16:01:05,116.40897,39.89552,2,16,1,5,"39.89552,116.40897","China, Bei Jing Shi, Dong Cheng Qu, 草厂八九条34号 邮政编码: 100051", 草厂八九条34号 邮政编码
10,2008-02-02 16:13:00,116.40897,39.89552,2,16,13,0,"39.89552,116.40897","China, Bei Jing Shi, Dong Cheng Qu, 草厂八九条34号 邮政编码: 100051", 草厂八九条34号 邮政编码
10,2008-02-02 16:13:20,116.40928,39.89512,2,16,13,20,"39.89512,116.40928","China, Bei Jing Shi, Dong Cheng Qu, 草厂八九条34号 邮政编码: 100051", 草厂八九条34号 邮政编码
10,2008-02-02 16:13:23,116.40933,39.89533,2,16,13,23,"39.89533,116.40933","China, Bei Jing Shi, Dong Cheng Qu, 草厂十条27号 邮政编码: 100051", 草厂十条27号 邮政编码
10,2008-02-02 16:13:32,116.4097,39.89447,2,16,13,32,"39.89447,116.4097","China, Bei Jing Shi, Dong Cheng Qu, 草厂十条35号 邮政编码: 100051", 草厂十条35号 邮政编码
10,2008-02-02 16:13:35,116.40975,39.89445,2,16,13,35,"39.89445,116.40975","China, Bei Jing Shi, Dong Cheng Qu, 草厂十条35号 邮政编码: 100051", 草厂十条35号 邮政编码
10,2008-02-02 16:13:52,116.41083,39.89417,2,16,13,52,"39.89417,116.41083","China, Bei Jing Shi, Dong Cheng Qu, 东八角胡同6号 邮政编码: 100051", 东八角胡同6号 邮政编码
10,2008-02-02 16:14:14,116.41227,39.8942,2,16,14,14,"39.8942,116.41227","China, Bei Jing Shi, Dong Cheng Qu, 兴隆街 邮政编码: 100051", 兴隆街 邮政编码
10,2008-02-02 16:14:17,116.4123,39.89413,2,16,14,17,"39.89413,116.4123","China, Bei Jing Shi, Dong Cheng Qu, 兴隆街 邮政编码: 100051", 兴隆街 邮政编码
10,2008-02-02 16:14:29,116.41233,39.89338,2,16,14,29,"39.89338,116.41233","China, Bei Jing Shi, Dong Cheng Qu, Zhushikou E St, 7号-1中国新闻大厦 邮政编码: 100051", Zhushikou E St
10,2008-02-02 16:14:32,116.41233,39.89332,2,16,14,32,"39.89332,116.41233","China, Bei Jing Shi, Dong Cheng Qu, Zhushikou E St, 7号-1中国新闻大厦 邮政编码: 100051", Zhushikou E St
10,2008-02-02 16:14:45,116.41243,39.89327,2,16,14,45,"39.89327,116.41243","China, Bei Jing Shi, Dong Cheng Qu, 珠市口东大街5-23号 邮政编码: 100051", 珠市口东大街5-23号 邮政编码
10,2008-02-02 16:14:48,116.41242,39.89322,2,16,14,48,"39.89322,116.41242","China, Bei Jing Shi, Dong Cheng Qu, 珠市口东大街5-23号 邮政编码: 100051", 珠市口东大街5-23号 邮政编码
10,2008-02-02 16:15:45,116.41235,39.89322,2,16,15,45,"39.89322,116.41235","China, Bei Jing Shi, Dong Cheng Qu, 珠市口东大街5-23号 邮政编码: 100051", 珠市口东大街5-23号 邮政编码
10,2008-02-02 16:16:47,116.40663,39.89157,2,16,16,47,"39.89157,116.40663","China, Bei Jing Shi, Dong Cheng Qu, CN 北京市 东城区 金鱼池中街 1 1号院A座654 邮政编码: 100051", CN 北京市 东城区 金鱼池中街 1 1号院A座654 邮政编码
10,2008-02-02 16:18:28,116.40635,39.8915,2,16,18,28,"39.8915,116.40635","China, Bei Jing Shi, Dong Cheng Qu, 苏家坡胡同西43号院 邮政编码: 100051", 苏家坡胡同西43号院 邮政编码
10,2008-02-02 16:18:31,116.40617,39.8914,2,16,18,31,"39.8914,116.40617","China, Bei Jing Shi, Dong Cheng Qu, 苏家坡胡同东10号院 邮政编码: 100051", 苏家坡胡同东10号院 邮政编码
10,2008-02-02 16:19:04,116.40612,39.8888,2,16,19,4,"39.8888,116.40612","13 Jin Yu Chi Xi Qu, Dong Cheng Qu, Bei Jing Shi, China, 100051",13 Jin Yu Chi Xi Qu
10,2008-02-02 16:20:34,116.40158,39.88678,2,16,20,34,"39.88678,116.40158","China, Bei Jing Shi, Dong Cheng Qu, 天坛路12号 邮政编码: 100061", 天坛路12号 邮政编码
10,2008-02-02 16:21:14,116.39755,39.88638,2,16,21,14,"39.88638,116.39755","China, Bei Jing Shi, Xi Cheng Qu, 天桥路口西 邮政编码: 100061", 天桥路口西 邮政编码
10,2008-02-02 16:21:45,116.39353,39.88525,2,16,21,45,"39.88525,116.39353","China, Bei Jing Shi, Xi Cheng Qu, 友谊医院门诊斜对面 邮政编码: 100052", 友谊医院门诊斜对面 邮政编码
10,2008-02-02 16:22:36,116.39307,39.88515,2,16,22,36,"39.88515,116.39307","2 Dongjing Rd, Xi Cheng Qu, Bei Jing Shi, China, 100052",2 Dongjing Rd
10,2008-02-02 16:22:47,116.39257,39.88505,2,16,22,47,"39.88505,116.39257","China, Bei Jing Shi, Xi Cheng Qu, 永安路95号 邮政编码: 100052", 永安路95号 邮政编码
10,2008-02-02 16:23:21,116.39248,39.88243,2,16,23,21,"39.88243,116.39248","5 Dongjing Rd, Xi Cheng Qu, Bei Jing Shi, China, 100052",5 Dongjing Rd
10,2008-02-02 16:25:11,116.39228,39.8787,2,16,25,11,"39.8787,116.39228","China, Bei Jing Shi, Xi Cheng Qu, 东纬路11号 邮政编码: 100052", 东纬路11号 邮政编码
10,2008-02-02 16:25:42,116.3915,39.87563,2,16,25,42,"39.87563,116.3915","China, Bei Jing Shi, Xi Cheng Qu, 太平街8号 邮政编码: 100052", 太平街8号 邮政编码
10,2008-02-02 16:26:39,116.39183,39.87272,2,16,26,39,"39.87272,116.39183","China, Bei Jing Shi, Xi Cheng Qu, 永定门西街 邮政编码: 100054", 永定门西街 邮政编码
10,2008-02-02 16:26:54,116.39242,39.87072,2,16,26,54,"39.87072,116.39242","China, Bei Jing Shi, Dong Cheng Qu, 松林街 邮政编码: 100054", 松林街 邮政编码
10,2008-02-02 16:27:50,116.3932,39.86453,2,16,27,50,"39.86453,116.3932","China, Bei Jing Shi, Dong Cheng Qu, 西革新里120号 邮政编码: 100054", 西革新里120号 邮政编码
10,2008-02-02 16:29:46,116.39363,39.85422,2,16,29,46,"39.85422,116.39363","China, Bei Jing Shi, Feng Tai Qu, 海户路 邮政编码: 100054", 海户路 邮政编码
10,2008-02-02 16:31:43,116.39407,39.84887,2,16,31,43,"39.84887,116.39407","53 Xiluoyuan Nanli, Feng Tai Qu, Bei Jing Shi, China, 100068",53 Xiluoyuan Nanli
10,2008-02-02 16:37:05,116.3951,39.82535,2,16,37,5,"39.82535,116.3951","China, Bei Jing Shi, Feng Tai Qu, 大红门南路久敬庄60号 邮政编码: 100068", 大红门南路久敬庄60号 邮政编码
10,2008-02-02 16:40:42,116.39575,39.81237,2,16,40,42,"39.81237,116.39575","China, Bei Jing Shi, Feng Tai Qu, 和义西里3区21号楼102 邮政编码: 100076", 和义西里3区21号楼102 邮政编码
10,2008-02-02 16:41:39,116.39575,39.81233,2,16,41,39,"39.81233,116.39575","China, Bei Jing Shi, Feng Tai Qu, 和义西里3区21号楼102 邮政编码: 100076", 和义西里3区21号楼102 邮政编码
10,2008-02-02 16:42:07,116.39585,39.80977,2,16,42,7,"39.80977,116.39585","China, Bei Jing Shi, Feng Tai Qu, Dahongmen S Rd, 南苑北里三区24号 邮政编码: 100076", Dahongmen S Rd
10,2008-02-02 16:42:28,116.39585,39.8097,2,16,42,28,"39.8097,116.39585","China, Bei Jing Shi, Feng Tai Qu, Dahongmen S Rd, 南苑北里三区24号 邮政编码: 100076", Dahongmen S Rd
10,2008-02-02 16:43:34,116.39632,39.80325,2,16,43,34,"39.80325,116.39632","China, Bei Jing Shi, Feng Tai Qu, 中南大道45号 邮政编码: 100076", 中南大道45号 邮政编码
10,2008-02-02 16:43:59,116.39633,39.80182,2,16,43,59,"39.80182,116.39633","China, Bei Jing Shi, Feng Tai Qu, 警备路 邮政编码: 100076", 警备路 邮政编码
10,2008-02-02 16:44:02,116.39625,39.80172,2,16,44,2,"39.80172,116.39625","China, Bei Jing Shi, Feng Tai Qu, 警备路 邮政编码: 100076", 警备路 邮政编码
10,2008-02-02 16:44:05,116.39608,39.80168,2,16,44,5,"39.80168,116.39608","China, Bei Jing Shi, Feng Tai Qu, 警备路 邮政编码: 100076", 警备路 邮政编码
10,2008-02-02 16:44:05,116.39608,39.80168,2,16,44,5,"39.80168,116.39608","China, Bei Jing Shi, Feng Tai Qu, 警备路 邮政编码: 100076", 警备路 邮政编码
10,2008-02-02 16:54:45,116.39257,39.80157,2,16,54,45,"39.80157,116.39257","China, Bei Jing Shi, Feng Tai Qu, 警备西路4号 邮政编码: 100076", 警备西路4号 邮政编码
10,2008-02-02 16:54:46,116.39257,39.80157,2,16,54,46,"39.80157,116.39257","China, Bei Jing Shi, Feng Tai Qu, 警备西路4号 邮政编码: 100076", 警备西路4号 邮政编码
10,2008-02-02 16:57:32,116.39257,39.80157,2,16,57,32,"39.80157,116.39257","China, Bei Jing Shi, Feng Tai Qu, 警备西路4号 邮政编码: 100076", 警备西路4号 邮政编码
10,2008-02-02 16:58:19,116.3964,39.80173,2,16,58,19,"39.80173,116.3964","China, Bei Jing Shi, Feng Tai Qu, 警备路 邮政编码: 100076", 警备路 邮政编码
10,2008-02-02 16:58:22,116.39643,39.80187,2,16,58,22,"39.80187,116.39643","China, Bei Jing Shi, Feng Tai Qu, 警备路 邮政编码: 100076", 警备路 邮政编码
10,2008-02-02 16:58:31,116.39637,39.80232,2,16,58,31,"39.80232,116.39637","China, Bei Jing Shi, Feng Tai Qu, 大营门 邮政编码: 100076", 大营门 邮政编码
10,2008-02-02 16:59:43,116.39652,39.80343,2,16,59,43,"39.80343,116.39652","China, Bei Jing Shi, Feng Tai Qu, 中南大道37号 邮政编码: 100076", 中南大道37号 邮政编码
10,2008-02-02 16:59:48,116.39672,39.80378,2,16,59,48,"39.80378,116.39672","China, Bei Jing Shi, Feng Tai Qu, 东头道街2号 邮政编码: 100076", 东头道街2号 邮政编码
10,2008-02-02 17:00:13,116.3966,39.80575,2,17,0,13,"39.80575,116.3966","China, Bei Jing Shi, Feng Tai Qu, 胜利街7号 邮政编码: 100076", 胜利街7号 邮政编码
10,2008-02-02 17:02:12,116.3963,39.8123,2,17,2,12,"39.8123,116.3963","73 Jia He Zhuang, Feng Tai Qu, Bei Jing Shi, China, 100076",73 Jia He Zhuang
10,2008-02-02 17:02:40,116.3963,39.8123,2,17,2,40,"39.8123,116.3963","73 Jia He Zhuang, Feng Tai Qu, Bei Jing Shi, China, 100076",73 Jia He Zhuang
10,2008-02-02 17:04:44,116.3963,39.8123,2,17,4,44,"39.8123,116.3963","73 Jia He Zhuang, Feng Tai Qu, Bei Jing Shi, China, 100076",73 Jia He Zhuang
10,2008-02-02 17:06:37,116.3963,39.8123,2,17,6,37,"39.8123,116.3963","73 Jia He Zhuang, Feng Tai Qu, Bei Jing Shi, China, 100076",73 Jia He Zhuang
10,2008-02-02 17:13:51,116.39457,39.847,2,17,13,51,"39.847,116.39457","China, Bei Jing Shi, Feng Tai Qu, 九龙口鑫福里9栋 邮政编码: 100068", 九龙口鑫福里9栋 邮政编码
10,2008-02-02 17:14:21,116.39452,39.84787,2,17,14,21,"39.84787,116.39452","China, Bei Jing Shi, Feng Tai Qu, 临泓路25号 邮政编码: 100068", 临泓路25号 邮政编码
10,2008-02-02 17:15:33,116.39418,39.85247,2,17,15,33,"39.85247,116.39418","China, Bei Jing Shi, Feng Tai Qu, 海户路西罗园南里37号楼 邮政编码: 100068", 海户路西罗园南里37号楼 邮政编码
10,2008-02-02 17:17:02,116.39413,39.85648,2,17,17,2,"39.85648,116.39413","China, Bei Jing Shi, Feng Tai Qu, 海户路 邮政编码: 100054", 海户路 邮政编码
10,2008-02-02 17:17:15,116.39513,39.8561,2,17,17,15,"39.8561,116.39513","China, Bei Jing Shi, Feng Tai Qu, 北京丰台南三环中路珠江骏景 邮政编码: 100054", 北京丰台南三环中路珠江骏景 邮政编码
10,2008-02-02 17:17:18,116.39512,39.85593,2,17,17,18,"39.85593,116.39512","China, Bei Jing Shi, Feng Tai Qu, 果园地铁站 邮政编码: 100054", 果园地铁站 邮政编码
10,2008-02-02 17:17:39,116.39428,39.85583,2,17,17,39,"39.85583,116.39428","China, Bei Jing Shi, Feng Tai Qu, CN 北京市 丰台区 44 正北方向130米 邮政编码: 100054", CN 北京市 丰台区 44 正北方向130米 邮政编码
10,2008-02-02 17:17:58,116.39333,39.85595,2,17,17,58,"39.85595,116.39333","China, Bei Jing Shi, Feng Tai Qu, 海户路,与南三环中路路口南侧路西 邮政编码: 100054", 海户路
10,2008-02-02 17:17:58,116.39333,39.85595,2,17,17,58,"39.85595,116.39333","China, Bei Jing Shi, Feng Tai Qu, 海户路,与南三环中路路口南侧路西 邮政编码: 100054", 海户路
10,2008-02-02 17:18:18,116.39295,39.85592,2,17,18,18,"39.85592,116.39295","China, Bei Jing Shi, Feng Tai Qu, 南三环中路,木樨园桥以西约480米路南 邮政编码: 100054", 南三环中路
10,2008-02-02 17:19:02,116.38917,39.85583,2,17,19,2,"39.85583,116.38917","China, Bei Jing Shi, Feng Tai Qu, 南三环中路 邮政编码: 100054", 南三环中路 邮政编码
10,2008-02-02 17:19:41,116.38822,39.856,2,17,19,41,"39.856,116.38822","China, Bei Jing Shi, Feng Tai Qu, 西罗园海户西里3号楼4门006室 邮政编码: 100054", 西罗园海户西里3号楼4门006室 邮政编码
10,2008-02-02 17:19:52,116.3877,39.85583,2,17,19,52,"39.85583,116.3877","China, Bei Jing Shi, Feng Tai Qu, 马家堡东路,洋桥东南角 邮政编码: 100054", 马家堡东路
10,2008-02-02 17:20:06,116.38703,39.85578,2,17,20,6,"39.85578,116.38703","China, Bei Jing Shi, Feng Tai Qu, 海户西里9号 邮政编码: 100054", 海户西里9号 邮政编码
10,2008-02-02 17:20:09,116.38677,39.85568,2,17,20,9,"39.85568,116.38677","China, Bei Jing Shi, Feng Tai Qu, 马家堡东路55号 邮政编码: 100054", 马家堡东路55号 邮政编码
10,2008-02-02 17:20:17,116.38587,39.85555,2,17,20,17,"39.85555,116.38587","55 Majiapu E Rd, Feng Tai Qu, Bei Jing Shi, China, 100054",55 Majiapu E Rd
10,2008-02-02 17:20:22,116.3852,39.85547,2,17,20,22,"39.85547,116.3852","China, Bei Jing Shi, Feng Tai Qu, 南三环西路 邮政编码: 100054", 南三环西路 邮政编码
10,2008-02-02 17:20:27,116.3847,39.8555,2,17,20,27,"39.8555,116.3847","China, Bei Jing Shi, Feng Tai Qu, 马家堡路,西罗园医院南侧路东 邮政编码: 100054", 马家堡路
10,2008-02-02 17:25:27,116.33257,39.84775,2,17,25,27,"39.84775,116.33257","China, Bei Jing Shi, Feng Tai Qu, CN 北京市 丰台区 南三环 50 米路西中天雅格宾馆底商 邮政编码: 100070", CN 北京市 丰台区 南三环 50 米路西中天雅格宾馆底商 邮政编码
10,2008-02-02 17:27:01,116.32122,39.84827,2,17,27,1,"39.84827,116.32122","China, Bei Jing Shi, Feng Tai Qu, 芳菲路 邮政编码: 100070", 芳菲路 邮政编码
10,2008-02-02 17:29:41,116.307,39.86232,2,17,29,41,"39.86232,116.307","China, Bei Jing Shi, Feng Tai Qu, 西三环南路44号 邮政编码: 100073", 西三环南路44号 邮政编码
10,2008-02-02 17:35:14,116.3049,39.88192,2,17,35,14,"39.88192,116.3049","China, Bei Jing Shi, Feng Tai Qu, 广安路 邮政编码: 100073", 广安路 邮政编码
10,2008-02-02 17:35:29,116.30545,39.88302,2,17,35,29,"39.88302,116.30545","China, Bei Jing Shi, Feng Tai Qu, 六里桥甲1号 邮政编码: 100073", 六里桥甲1号 邮政编码
10,2008-02-02 17:35:39,116.30542,39.88362,2,17,35,39,"39.88362,116.30542","1 Liuli Brg, Feng Tai Qu, Bei Jing Shi, China, 100073",1 Liuli Brg
10,2008-02-02 17:38:04,116.30872,39.88517,2,17,38,4,"39.88517,116.30872","China, Bei Jing Shi, Feng Tai Qu, 六里桥北里甲1号 邮政编码: 100073", 六里桥北里甲1号 邮政编码
10,2008-02-02 17:40:10,116.3113,39.88627,2,17,40,10,"39.88627,116.3113","China, Bei Jing Shi, Feng Tai Qu, 六里桥东侧 邮政编码: 100073", 六里桥东侧 邮政编码
10,2008-02-02 17:42:24,116.31462,39.88755,2,17,42,24,"39.88755,116.31462","China, Bei Jing Shi, Feng Tai Qu, 水子口街 邮政编码: 100073", 水子口街 邮政编码
10,2008-02-02 17:42:31,116.31468,39.8874,2,17,42,31,"39.8874,116.31468","China, Bei Jing Shi, Feng Tai Qu, 水子口街 邮政编码: 100073", 水子口街 邮政编码
10,2008-02-02 17:42:48,116.31467,39.88728,2,17,42,48,"39.88728,116.31467","China, Bei Jing Shi, Feng Tai Qu, 广安路 邮政编码: 100073", 广安路 邮政编码
10,2008-02-02 17:42:51,116.31477,39.88723,2,17,42,51,"39.88723,116.31477","China, Bei Jing Shi, Feng Tai Qu, 广安路 邮政编码: 100073", 广安路 邮政编码
10,2008-02-02 17:42:54,116.31475,39.8871,2,17,42,54,"39.8871,116.31475","China, Bei Jing Shi, Feng Tai Qu, 北京电力总院对面 邮政编码: 100073", 北京电力总院对面 邮政编码
10,2008-02-02 17:42:58,116.31473,39.88697,2,17,42,58,"39.88697,116.31473","China, Bei Jing Shi, Feng Tai Qu, 广安路35-4号 邮政编码: 100073", 广安路35-4号 邮政编码
10,2008-02-02 17:44:37,116.31475,39.88692,2,17,44,37,"39.88692,116.31475","China, Bei Jing Shi, Feng Tai Qu, 广安路35-4号 邮政编码: 100073", 广安路35-4号 邮政编码
10,2008-02-02 17:48:46,116.31493,39.8832,2,17,48,46,"39.8832,116.31493","39 Tai Ping Qiao Xi Li, Feng Tai Qu, Bei Jing Shi, China, 100073",39 Tai Ping Qiao Xi Li
10,2008-02-02 17:48:49,116.31505,39.88313,2,17,48,49,"39.88313,116.31505","39 Tai Ping Qiao Xi Li, Feng Tai Qu, Bei Jing Shi, China, 100073",39 Tai Ping Qiao Xi Li
10,2008-02-02 17:48:58,116.31572,39.88312,2,17,48,58,"39.88312,116.31572","China, Bei Jing Shi, Feng Tai Qu, 马连道第三区3号楼1118室 邮政编码: 100073", 马连道第三区3号楼1118室 邮政编码
10,2008-02-02 17:49:05,116.3162,39.88303,2,17,49,5,"39.88303,116.3162","China, Bei Jing Shi, Feng Tai Qu, 太平桥43号 邮政编码: 100073", 太平桥43号 邮政编码
10,2008-02-02 17:49:13,116.31657,39.88298,2,17,49,13,"39.88298,116.31657","41 Tai Ping Qiao Xi Li, Feng Tai Qu, Bei Jing Shi, China, 100073",41 Tai Ping Qiao Xi Li
10,2008-02-02 17:50:00,116.3173,39.88308,2,17,50,0,"39.88308,116.3173","China, Bei Jing Shi, Feng Tai Qu, Taipingqiao Rd, 太平桥 邮政编码: 100073", Taipingqiao Rd
10,2008-02-02 17:50:26,116.31775,39.88318,2,17,50,26,"39.88318,116.31775","China, Bei Jing Shi, Feng Tai Qu, 太平桥路 邮政编码: 100073", 太平桥路 邮政编码
10,2008-02-02 18:03:15,116.32008,39.88308,2,18,3,15,"39.88308,116.32008","China, Bei Jing Shi, Feng Tai Qu, 西站南路 邮政编码: 100073", 西站南路 邮政编码
10,2008-02-02 18:03:22,116.32037,39.8831,2,18,3,22,"39.8831,116.32037","China, Bei Jing Shi, Feng Tai Qu, 北京西站南路 邮政编码: 100073", 北京西站南路 邮政编码
10,2008-02-02 18:03:34,116.3205,39.88308,2,18,3,34,"39.88308,116.3205","China, Bei Jing Shi, Feng Tai Qu, 北京西站南路 邮政编码: 100073", 北京西站南路 邮政编码
10,2008-02-02 18:05:32,116.33343,39.88345,2,18,5,32,"39.88345,116.33343","19 Hong Lian Zhong Li, Xi Cheng Qu, Bei Jing Shi, China, 100073",19 Hong Lian Zhong Li
10,2008-02-02 18:05:35,116.33357,39.88352,2,18,5,35,"39.88352,116.33357","China, Bei Jing Shi, Xi Cheng Qu, 西华门红莲中里19栋 邮政编码: 100073", 西华门红莲中里19栋 邮政编码
10,2008-02-02 18:05:38,116.3336,39.88367,2,18,5,38,"39.88367,116.3336","China, Bei Jing Shi, Xi Cheng Qu, 西华门红莲中里19栋 邮政编码: 100073", 西华门红莲中里19栋 邮政编码
10,2008-02-02 18:06:22,116.33387,39.8867,2,18,6,22,"39.8867,116.33387","5 Ma Lian Dao Zhong Li Er Qu, Xi Cheng Qu, Bei Jing Shi, China, 100073",5 Ma Lian Dao Zhong Li Er Qu
10,2008-02-02 18:06:22,116.33387,39.8867,2,18,6,22,"39.8867,116.33387","5 Ma Lian Dao Zhong Li Er Qu, Xi Cheng Qu, Bei Jing Shi, China, 100073",5 Ma Lian Dao Zhong Li Er Qu
10,2008-02-02 18:07:03,116.33322,39.88652,2,18,7,3,"39.88652,116.33322","China, Bei Jing Shi, Xi Cheng Qu, Wangfujing, 马连道中里二区4栋 邮政编码: 100073", Wangfujing
10,2008-02-02 18:07:08,116.33283,39.88655,2,18,7,8,"39.88655,116.33283","China, Bei Jing Shi, Xi Cheng Qu, Wangfujing, 马连道中里二区4栋 邮政编码: 100073", Wangfujing
10,2008-02-02 18:07:13,116.33265,39.88673,2,18,7,13,"39.88673,116.33265","China, Bei Jing Shi, Xi Cheng Qu, 马连道中街22号 邮政编码: 100073", 马连道中街22号 邮政编码
10,2008-02-02 18:07:56,116.3327,39.88813,2,18,7,56,"39.88813,116.3327","China, Bei Jing Shi, Xi Cheng Qu, 马连道北街5-2号 邮政编码: 100055", 马连道北街5-2号 邮政编码
10,2008-02-02 18:08:24,116.33255,39.8883,2,18,8,24,"39.8883,116.33255","China, Bei Jing Shi, Xi Cheng Qu, 马连道北街 邮政编码: 100055", 马连道北街 邮政编码
10,2008-02-02 18:08:27,116.33265,39.88837,2,18,8,27,"39.88837,116.33265","China, Bei Jing Shi, Xi Cheng Qu, 马连道北街 邮政编码: 100055", 马连道北街 邮政编码
10,2008-02-02 18:08:31,116.33292,39.88838,2,18,8,31,"39.88838,116.33292","9 San Yi Dong Li, Xi Cheng Qu, Bei Jing Shi, China, 100055",9 San Yi Dong Li
10,2008-02-02 18:09:35,116.3418,39.88808,2,18,9,35,"39.88808,116.3418","China, Bei Jing Shi, Xi Cheng Qu, 手帕口南街1-4-4号 邮政编码: 100055", 手帕口南街1-4-4号 邮政编码
10,2008-02-02 18:09:38,116.34192,39.8879,2,18,9,38,"39.8879,116.34192","China, Bei Jing Shi, Xi Cheng Qu, 手帕口南街1-4-3号 邮政编码: 100055", 手帕口南街1-4-3号 邮政编码
10,2008-02-02 18:09:52,116.34203,39.8865,2,18,9,52,"39.8865,116.34203","China, Bei Jing Shi, Xi Cheng Qu, 广安门外手帕口南街71号（近广安门货站） 邮政编码: 100055", 广安门外手帕口南街71号（近广安门货站） 邮政编码
10,2008-02-02 18:10:01,116.34252,39.88562,2,18,10,1,"39.88562,116.34252","China, Bei Jing Shi, Xi Cheng Qu, 手帕口南街甲一号 邮政编码: 100055", 手帕口南街甲一号 邮政编码
10,2008-02-02 18:12:17,116.34297,39.86825,2,18,12,17,"39.86825,116.34297","106 Lize Rd, Feng Tai Qu, Bei Jing Shi, China, 100073",106 Lize Rd
10,2008-02-02 18:12:23,116.34372,39.86758,2,18,12,23,"39.86758,116.34372","China, Bei Jing Shi, Feng Tai Qu, 丽泽路,菜户营桥以西约400米路南 邮政编码: 100073", 丽泽路
10,2008-02-02 18:12:29,116.34475,39.86715,2,18,12,29,"39.86715,116.34475","China, Bei Jing Shi, Feng Tai Qu, 丽泽路,菜户营桥以西约400米路南 邮政编码: 100073", 丽泽路
10,2008-02-02 18:16:16,116.37865,39.86932,2,18,16,16,"39.86932,116.37865","China, Bei Jing Shi, Feng Tai Qu, 右安门东滨河路,侨园饭店以东约50米路南 邮政编码: 100054", 右安门东滨河路
10,2008-02-02 18:17:01,116.38158,39.86755,2,18,17,1,"39.86755,116.38158","China, Bei Jing Shi, Dong Cheng Qu, 永外大街新南站 邮政编码: 100054", 永外大街新南站 邮政编码
10,2008-02-02 18:17:46,116.38152,39.86415,2,18,17,46,"39.86415,116.38152","China, Bei Jing Shi, Feng Tai Qu, 开阳路北京南站商业高架层（候车大厅内） 邮政编码: 100054", 开阳路北京南站商业高架层（候车大厅内） 邮政编码
10,2008-02-02 18:17:51,116.38137,39.86392,2,18,17,51,"39.86392,116.38137","China, Bei Jing Shi, Feng Tai Qu, 永外大街北京南站2楼候车大厅 邮政编码: 100054", 永外大街北京南站2楼候车大厅 邮政编码
10,2008-02-02 18:18:00,116.38087,39.86382,2,18,18,0,"39.86382,116.38087","China, Bei Jing Shi, Feng Tai Qu, 北京南站南广场 邮政编码: 100054", 北京南站南广场 邮政编码
10,2008-02-02 18:18:03,116.38085,39.86375,2,18,18,3,"39.86375,116.38085","China, Bei Jing Shi, Feng Tai Qu, 北京南站南广场 邮政编码: 100054", 北京南站南广场 邮政编码
10,2008-02-02 18:18:22,116.38102,39.86378,2,18,18,22,"39.86378,116.38102","China, Bei Jing Shi, Feng Tai Qu, 永外大街北京南站2楼候车大厅 邮政编码: 100054", 永外大街北京南站2楼候车大厅 邮政编码
10,2008-02-02 18:18:38,116.38178,39.8641,2,18,18,38,"39.8641,116.38178","China, Bei Jing Shi, Feng Tai Qu, 开阳路北京南站商业高架层（候车大厅内） 邮政编码: 100054", 开阳路北京南站商业高架层（候车大厅内） 邮政编码
10,2008-02-02 18:19:10,116.38182,39.86507,2,18,19,10,"39.86507,116.38182","China, Bei Jing Shi, Feng Tai Qu, 北京南站南广场 邮政编码: 100054", 北京南站南广场 邮政编码
10,2008-02-02 18:19:13,116.38192,39.86515,2,18,19,13,"39.86515,116.38192","China, Bei Jing Shi, Feng Tai Qu, 北京南站南广场 邮政编码: 100054", 北京南站南广场 邮政编码
10,2008-02-02 18:19:22,116.38227,39.86543,2,18,19,22,"39.86543,116.38227","China, Bei Jing Shi, Feng Tai Qu, 北京丰台区马家堡19号 邮政编码: 100054", 北京丰台区马家堡19号 邮政编码
10,2008-02-02 18:19:25,116.38242,39.86545,2,18,19,25,"39.86545,116.38242","China, Bei Jing Shi, Feng Tai Qu, 北京丰台区马家堡19号 邮政编码: 100054", 北京丰台区马家堡19号 邮政编码
10,2008-02-02 18:19:57,116.38257,39.86557,2,18,19,57,"39.86557,116.38257","China, Bei Jing Shi, Feng Tai Qu, 北京丰台区马家堡19号 邮政编码: 100054", 北京丰台区马家堡19号 邮政编码
10,2008-02-02 18:20:00,116.38245,39.86555,2,18,20,0,"39.86555,116.38245","China, Bei Jing Shi, Feng Tai Qu, 北京丰台区马家堡19号 邮政编码: 100054", 北京丰台区马家堡19号 邮政编码
10,2008-02-02 18:20:03,116.38242,39.86548,2,18,20,3,"39.86548,116.38242","China, Bei Jing Shi, Feng Tai Qu, 北京丰台区马家堡19号 邮政编码: 100054", 北京丰台区马家堡19号 邮政编码
10,2008-02-02 18:20:09,116.38223,39.8654,2,18,20,9,"39.8654,116.38223","China, Bei Jing Shi, Feng Tai Qu, 北京丰台区马家堡19号 邮政编码: 100054", 北京丰台区马家堡19号 邮政编码
10,2008-02-02 18:20:12,116.38225,39.86527,2,18,20,12,"39.86527,116.38225","China, Bei Jing Shi, Feng Tai Qu, 北京丰台区马家堡19号 邮政编码: 100054", 北京丰台区马家堡19号 邮政编码
10,2008-02-02 18:20:15,116.38245,39.86517,2,18,20,15,"39.86517,116.38245","China, Bei Jing Shi, Feng Tai Qu, 北京丰台区马家堡19号 邮政编码: 100054", 北京丰台区马家堡19号 邮政编码
10,2008-02-02 18:24:04,116.38305,39.86392,2,18,24,4,"39.86392,116.38305","5 Yang Qiao Bei Li, Feng Tai Qu, Bei Jing Shi, China, 100054",5 Yang Qiao Bei Li
10,2008-02-02 18:24:07,116.38293,39.86387,2,18,24,7,"39.86387,116.38293","China, Bei Jing Shi, Feng Tai Qu, 洋桥北里10号 邮政编码: 100054", 洋桥北里10号 邮政编码
10,2008-02-02 18:25:57,116.38157,39.87312,2,18,25,57,"39.87312,116.38157","China, Bei Jing Shi, Xi Cheng Qu, Taiping St, 19号陶然亭公园内 邮政编码: 100054", Taiping St
10,2008-02-02 18:26:14,116.38153,39.87313,2,18,26,14,"39.87313,116.38153","China, Bei Jing Shi, Xi Cheng Qu, Taiping St, 19号陶然亭公园内 邮政编码: 100054", Taiping St
10,2008-02-02 18:27:37,116.38128,39.87735,2,18,27,37,"39.87735,116.38128","China, Bei Jing Shi, Xi Cheng Qu, 太平街119号 邮政编码: 100052", 太平街119号 邮政编码
10,2008-02-02 18:28:38,116.37422,39.87743,2,18,28,38,"39.87743,116.37422","China, Bei Jing Shi, Xi Cheng Qu, 菜市口大街自新路24幢 邮政编码: 100052", 菜市口大街自新路24幢 邮政编码
10,2008-02-02 18:29:13,116.37143,39.8773,2,18,29,13,"39.8773,116.37143","2 Baizhifang E St, Xi Cheng Qu, Bei Jing Shi, China, 100054",2 Baizhifang E St
10,2008-02-02 18:30:33,116.37003,39.87725,2,18,30,33,"39.87725,116.37003","China, Bei Jing Shi, Xi Cheng Qu, 白纸坊东街,半步桥小学南侧胡同内 邮政编码: 100054", 白纸坊东街
10,2008-02-02 18:30:33,116.37003,39.87725,2,18,30,33,"39.87725,116.37003","China, Bei Jing Shi, Xi Cheng Qu, 白纸坊东街,半步桥小学南侧胡同内 邮政编码: 100054", 白纸坊东街
10,2008-02-02 18:30:49,116.36935,39.87723,2,18,30,49,"39.87723,116.36935","China, Bei Jing Shi, Xi Cheng Qu, 半步桥胡同12号 邮政编码: 100054", 半步桥胡同12号 邮政编码
10,2008-02-02 18:33:40,116.3649,39.87708,2,18,33,40,"39.87708,116.3649","China, Bei Jing Shi, Xi Cheng Qu, 右安门内大街 邮政编码: 100054", 右安门内大街 邮政编码
10,2008-02-02 18:33:50,116.36457,39.87712,2,18,33,50,"39.87712,116.36457","China, Bei Jing Shi, Xi Cheng Qu, 右安门内大街 邮政编码: 100054", 右安门内大街 邮政编码
10,2008-02-02 18:33:53,116.36448,39.87723,2,18,33,53,"39.87723,116.36448","China, Bei Jing Shi, Xi Cheng Qu, 右安门内大街 邮政编码: 100054", 右安门内大街 邮政编码
10,2008-02-02 18:34:13,116.36462,39.87842,2,18,34,13,"39.87842,116.36462","China, Bei Jing Shi, Xi Cheng Qu, 白纸坊东街22号 邮政编码: 100054", 白纸坊东街22号 邮政编码
10,2008-02-02 18:35:37,116.361,39.88202,2,18,35,37,"39.88202,116.361","China, Bei Jing Shi, Xi Cheng Qu, 樱桃园车站旁 邮政编码: 100053", 樱桃园车站旁 邮政编码
10,2008-02-02 18:36:24,116.36097,39.88328,2,18,36,24,"39.88328,116.36097","3 Zaolin Front St, Xi Cheng Qu, Bei Jing Shi, China, 100053",3 Zaolin Front St
10,2008-02-02 18:36:57,116.36112,39.8844,2,18,36,57,"39.8844,116.36112","China, Bei Jing Shi, Xi Cheng Qu, 枣林斜街55号 邮政编码: 100053", 枣林斜街55号 邮政编码
10,2008-02-02 18:37:55,116.36157,39.88772,2,18,37,55,"39.88772,116.36157","1 Niu Jie Xi Li Yi Qu, Xi Cheng Qu, Bei Jing Shi, China, 100053",1 Niu Jie Xi Li Yi Qu
10,2008-02-02 18:37:58,116.36148,39.88787,2,18,37,58,"39.88787,116.36148","1 Niu Jie Xi Li Yi Qu, Xi Cheng Qu, Bei Jing Shi, China, 100053",1 Niu Jie Xi Li Yi Qu
10,2008-02-02 18:38:31,116.35903,39.88793,2,18,38,31,"39.88793,116.35903","China, Bei Jing Shi, Xi Cheng Qu, Baiguang Rd, 6号12幢2层 邮政编码: 100053", Baiguang Rd
10,2008-02-02 18:41:01,116.35323,39.88805,2,18,41,1,"39.88805,116.35323","China, Bei Jing Shi, Xi Cheng Qu, 南线阁街 邮政编码: 100053", 南线阁街 邮政编码
10,2008-02-02 18:43:19,116.34522,39.88833,2,18,43,19,"39.88833,116.34522","5 Guang An Men Dong Zhan Dong Jie, Xi Cheng Qu, Bei Jing Shi, China, 100055",5 Guang An Men Dong Zhan Dong Jie
10,2008-02-02 18:43:52,116.3447,39.88835,2,18,43,52,"39.88835,116.3447","China, Bei Jing Shi, Xi Cheng Qu, 广外大街三义里小区6号楼1门141室 邮政编码: 100055", 广外大街三义里小区6号楼1门141室 邮政编码
10,2008-02-02 18:45:40,116.34447,39.8884,2,18,45,40,"39.8884,116.34447","China, Bei Jing Shi, Xi Cheng Qu, 广外大街三义里小区6号楼1门141室 邮政编码: 100055", 广外大街三义里小区6号楼1门141室 邮政编码
10,2008-02-02 18:45:45,116.34422,39.88852,2,18,45,45,"39.88852,116.34422","122 Guang'anmen Outer Ave, Xi Cheng Qu, Bei Jing Shi, China, 100055",122 Guang'anmen Outer Ave
10,2008-02-02 18:46:36,116.34147,39.88812,2,18,46,36,"39.88812,116.34147","China, Bei Jing Shi, Xi Cheng Qu, 红居东街2号 邮政编码: 100055", 红居东街2号 邮政编码
10,2008-02-02 18:46:45,116.34172,39.88775,2,18,46,45,"39.88775,116.34172","China, Bei Jing Shi, Xi Cheng Qu, 手帕口南街1号院3-1 邮政编码: 100055", 手帕口南街1号院3-1 邮政编码
10,2008-02-02 18:52:17,116.34022,39.84875,2,18,52,17,"39.84875,116.34022","China, Bei Jing Shi, Feng Tai Qu, 南三环西路郑王坟150号 邮政编码: 100073", 南三环西路郑王坟150号 邮政编码
10,2008-02-02 18:54:49,116.3389,39.83117,2,18,54,49,"39.83117,116.3389","75 Hou Huang Tu Gang, Feng Tai Qu, Bei Jing Shi, China, 100070",75 Hou Huang Tu Gang
10,2008-02-02 18:55:05,116.33817,39.83053,2,18,55,5,"39.83053,116.33817","25 S 4th Ring W Rd, Feng Tai Qu, Bei Jing Shi, China, 100070",25 S 4th Ring W Rd
10,2008-02-02 18:55:18,116.33762,39.83018,2,18,55,18,"39.83018,116.33762","China, Bei Jing Shi, Feng Tai Qu, 南四环西路70号 邮政编码: 100070", 南四环西路70号 邮政编码
10,2008-02-02 18:55:21,116.33758,39.83002,2,18,55,21,"39.83002,116.33758","China, Bei Jing Shi, Feng Tai Qu, 南四环西路70号 邮政编码: 100070", 南四环西路70号 邮政编码
10,2008-02-02 18:55:31,116.33787,39.83028,2,18,55,31,"39.83028,116.33787","25 S 4th Ring W Rd, Feng Tai Qu, Bei Jing Shi, China, 100070",25 S 4th Ring W Rd
10,2008-02-02 18:55:34,116.33785,39.83,2,18,55,34,"39.83,116.33785","China, Bei Jing Shi, Feng Tai Qu, S 4th Ring W Rd, 16号附近 邮政编码: 100070", S 4th Ring W Rd
10,2008-02-02 18:55:37,116.33793,39.8297,2,18,55,37,"39.8297,116.33793","China, Bei Jing Shi, Feng Tai Qu, 圆明园西路兰园小区大门北侧 邮政编码: 100070", 圆明园西路兰园小区大门北侧 邮政编码
10,2008-02-02 18:55:47,116.33868,39.8289,2,18,55,47,"39.8289,116.33868","China, Bei Jing Shi, Feng Tai Qu, 圆明园西路兰园小区大门北侧 邮政编码: 100070", 圆明园西路兰园小区大门北侧 邮政编码
10,2008-02-02 18:55:55,116.33905,39.8282,2,18,55,55,"39.8282,116.33905","China, Bei Jing Shi, Feng Tai Qu, 黄土岗宜兰园2区21楼2门201室 邮政编码: 100070", 黄土岗宜兰园2区21楼2门201室 邮政编码
10,2008-02-02 18:56:13,116.33933,39.82647,2,18,56,13,"39.82647,116.33933","China, Bei Jing Shi, Feng Tai Qu, 黄土岗村宜兰园 邮政编码: 100070", 黄土岗村宜兰园 邮政编码
10,2008-02-02 18:56:55,116.33907,39.82373,2,18,56,55,"39.82373,116.33907","China, Bei Jing Shi, Feng Tai Qu, 丰台南路 邮政编码: 100070", 丰台南路 邮政编码
10,2008-02-02 18:58:50,116.33877,39.82128,2,18,58,50,"39.82128,116.33877","China, Bei Jing Shi, Feng Tai Qu, 黄陈路北京市新发地中央粮油批发市场B厅东1002号 邮政编码: 100070", 黄陈路北京市新发地中央粮油批发市场B厅东1002号 邮政编码
10,2008-02-02 18:58:53,116.33882,39.8212,2,18,58,53,"39.8212,116.33882","China, Bei Jing Shi, Feng Tai Qu, 黄陈路北京市新发地中央粮油批发市场B厅东1004号 邮政编码: 100070", 黄陈路北京市新发地中央粮油批发市场B厅东1004号 邮政编码
10,2008-02-02 18:58:56,116.3389,39.82113,2,18,58,56,"39.82113,116.3389","China, Bei Jing Shi, Feng Tai Qu, 黄陈路 邮政编码: 100070", 黄陈路 邮政编码
10,2008-02-02 19:00:20,116.33955,39.82103,2,19,0,20,"39.82103,116.33955","China, Bei Jing Shi, Feng Tai Qu, 黄陈路新发地农产品中央批发市场C厅19号 邮政编码: 100070", 黄陈路新发地农产品中央批发市场C厅19号 邮政编码
10,2008-02-02 19:00:27,116.3398,39.82105,2,19,0,27,"39.82105,116.3398","China, Bei Jing Shi, Feng Tai Qu, 黄陈路 邮政编码: 100070", 黄陈路 邮政编码
10,2008-02-02 19:00:30,116.3398,39.82115,2,19,0,30,"39.82115,116.3398","China, Bei Jing Shi, Feng Tai Qu, 黄陈路 邮政编码: 100070", 黄陈路 邮政编码
10,2008-02-02 19:00:42,116.33935,39.82155,2,19,0,42,"39.82155,116.33935","China, Bei Jing Shi, Feng Tai Qu, 黄陈路 邮政编码: 100070", 黄陈路 邮政编码
10,2008-02-02 19:01:17,116.33998,39.8246,2,19,1,17,"39.8246,116.33998","China, Bei Jing Shi, Feng Tai Qu, 右安路,中央戏剧学院成人教育学院以南约100米路东 邮政编码: 100070", 右安路
10,2008-02-02 19:01:44,116.34237,39.8244,2,19,1,44,"39.8244,116.34237","China, Bei Jing Shi, Feng Tai Qu, 京开路新发地客运站A区20号 邮政编码: 100070", 京开路新发地客运站A区20号 邮政编码
10,2008-02-02 19:01:47,116.34247,39.8245,2,19,1,47,"39.8245,116.34247","China, Bei Jing Shi, Feng Tai Qu, 京开路新发地客运站A区20号 邮政编码: 100070", 京开路新发地客运站A区20号 邮政编码
10,2008-02-02 19:02:08,116.3431,39.82603,2,19,2,8,"39.82603,116.3431","China, Bei Jing Shi, Feng Tai Qu, 右安路213号 邮政编码: 100070", 右安路213号 邮政编码
10,2008-02-02 19:09:32,116.3431,39.82603,2,19,9,32,"39.82603,116.3431","China, Bei Jing Shi, Feng Tai Qu, 右安路213号 邮政编码: 100070", 右安路213号 邮政编码
10,2008-02-02 19:09:57,116.3431,39.82603,2,19,9,57,"39.82603,116.3431","China, Bei Jing Shi, Feng Tai Qu, 右安路213号 邮政编码: 100070", 右安路213号 邮政编码
10,2008-02-02 19:10:07,116.34308,39.82597,2,19,10,7,"39.82597,116.34308","China, Bei Jing Shi, Feng Tai Qu, 京开路新发地客运站C区9号 邮政编码: 100070", 京开路新发地客运站C区9号 邮政编码
10,2008-02-02 19:10:33,116.34242,39.82432,2,19,10,33,"39.82432,116.34242","China, Bei Jing Shi, Feng Tai Qu, CN 北京市 丰台区 60 米 邮政编码: 100070", CN 北京市 丰台区 60 米 邮政编码
10,2008-02-02 19:10:36,116.34233,39.82432,2,19,10,36,"39.82432,116.34233","China, Bei Jing Shi, Feng Tai Qu, 京开路新发地客运站A区20号 邮政编码: 100070", 京开路新发地客运站A区20号 邮政编码
10,2008-02-02 19:11:09,116.33987,39.8246,2,19,11,9,"39.8246,116.33987","China, Bei Jing Shi, Feng Tai Qu, 右安路,中央戏剧学院成人教育学院以南约100米路东 邮政编码: 100070", 右安路
10,2008-02-02 19:11:12,116.33982,39.82475,2,19,11,12,"39.82475,116.33982","China, Bei Jing Shi, Feng Tai Qu, Youan Rd, 黄土岗200 邮政编码: 100070", Youan Rd
10,2008-02-02 19:11:36,116.34027,39.82693,2,19,11,36,"39.82693,116.34027","China, Bei Jing Shi, Feng Tai Qu, 二甲地 邮政编码: 100070", 二甲地 邮政编码
10,2008-02-02 19:12:15,116.34427,39.82947,2,19,12,15,"39.82947,116.34427","China, Bei Jing Shi, Feng Tai Qu, 右安路 邮政编码: 100070", 右安路 邮政编码
10,2008-02-02 19:17:27,116.39445,39.83013,2,19,17,27,"39.83013,116.39445","China, Bei Jing Shi, Feng Tai Qu, 南四环中路 邮政编码: 100068", 南四环中路 邮政编码
10,2008-02-02 19:17:40,116.39575,39.83013,2,19,17,40,"39.83013,116.39575","China, Bei Jing Shi, Feng Tai Qu, 高桥西里72号 邮政编码: 100068", 高桥西里72号 邮政编码
10,2008-02-02 19:17:44,116.39605,39.8302,2,19,17,44,"39.8302,116.39605","China, Bei Jing Shi, Feng Tai Qu, 南四环中路 邮政编码: 100068", 南四环中路 邮政编码
10,2008-02-02 19:17:49,116.3963,39.83038,2,19,17,49,"39.83038,116.3963","China, Bei Jing Shi, Feng Tai Qu, 南四环中路 邮政编码: 100076", 南四环中路 邮政编码
10,2008-02-02 19:17:53,116.39647,39.83065,2,19,17,53,"39.83065,116.39647","China, Bei Jing Shi, Feng Tai Qu, 南四环中路 邮政编码: 100076", 南四环中路 邮政编码
10,2008-02-02 19:17:59,116.39638,39.83105,2,19,17,59,"39.83105,116.39638","China, Bei Jing Shi, Feng Tai Qu, 南四环中路 邮政编码: 100076", 南四环中路 邮政编码
10,2008-02-02 19:21:58,116.39437,39.84775,2,19,21,58,"39.84775,116.39437","China, Bei Jing Shi, Feng Tai Qu, 临泓路25号 邮政编码: 100068", 临泓路25号 邮政编码
10,2008-02-02 19:22:50,116.39437,39.84773,2,19,22,50,"39.84773,116.39437","China, Bei Jing Shi, Feng Tai Qu, 临泓路25号 邮政编码: 100068", 临泓路25号 邮政编码
10,2008-02-02 19:23:36,116.39417,39.85253,2,19,23,36,"39.85253,116.39417","China, Bei Jing Shi, Feng Tai Qu, 海户路西罗园南里37号楼 邮政编码: 100068", 海户路西罗园南里37号楼 邮政编码
10,2008-02-02 19:23:36,116.39417,39.85253,2,19,23,36,"39.85253,116.39417","China, Bei Jing Shi, Feng Tai Qu, 海户路西罗园南里37号楼 邮政编码: 100068", 海户路西罗园南里37号楼 邮政编码
10,2008-02-02 19:23:58,116.39418,39.85252,2,19,23,58,"39.85252,116.39418","China, Bei Jing Shi, Feng Tai Qu, 海户路西罗园南里37号楼 邮政编码: 100068", 海户路西罗园南里37号楼 邮政编码
10,2008-02-02 19:25:21,116.39365,39.8637,2,19,25,21,"39.8637,116.39365","China, Bei Jing Shi, Dong Cheng Qu, 永外管村32号 邮政编码: 100054", 永外管村32号 邮政编码
10,2008-02-02 19:27:59,116.39393,39.87765,2,19,27,59,"39.87765,116.39393","21 Dongjing Rd, Xi Cheng Qu, Bei Jing Shi, China, 100052",21 Dongjing Rd
10,2008-02-02 19:28:19,116.39297,39.87893,2,19,28,19,"39.87893,116.39297","21 Dongjing Rd, Xi Cheng Qu, Bei Jing Shi, China, 100052",21 Dongjing Rd
10,2008-02-02 19:28:26,116.39293,39.87912,2,19,28,26,"39.87912,116.39293","21 Dongjing Rd, Xi Cheng Qu, Bei Jing Shi, China, 100052",21 Dongjing Rd
10,2008-02-02 19:28:26,116.39293,39.87912,2,19,28,26,"39.87912,116.39293","21 Dongjing Rd, Xi Cheng Qu, Bei Jing Shi, China, 100052",21 Dongjing Rd
10,2008-02-02 19:30:33,116.39293,39.8792,2,19,30,33,"39.8792,116.39293","21 Dongjing Rd, Xi Cheng Qu, Bei Jing Shi, China, 100052",21 Dongjing Rd
10,2008-02-02 19:32:26,116.39287,39.87942,2,19,32,26,"39.87942,116.39287","21 Dongjing Rd, Xi Cheng Qu, Bei Jing Shi, China, 100052",21 Dongjing Rd
10,2008-02-02 19:32:29,116.39267,39.87952,2,19,32,29,"39.87952,116.39267","China, Bei Jing Shi, Xi Cheng Qu, 东经路19-1号 邮政编码: 100052", 东经路19-1号 邮政编码
10,2008-02-02 19:32:36,116.3922,39.87958,2,19,32,36,"39.87958,116.3922","China, Bei Jing Shi, Xi Cheng Qu, 东经路19号锅炉房 邮政编码: 100052", 东经路19号锅炉房 邮政编码
10,2008-02-02 19:33:27,116.38702,39.87945,2,19,33,27,"39.87945,116.38702","China, Bei Jing Shi, Xi Cheng Qu, 新兴里 邮政编码: 100052", 新兴里 邮政编码
10,2008-02-02 19:33:30,116.38687,39.8796,2,19,33,30,"39.8796,116.38687","China, Bei Jing Shi, Xi Cheng Qu, 太平街 邮政编码: 100052", 太平街 邮政编码
10,2008-02-02 19:34:00,116.38702,39.8814,2,19,34,0,"39.8814,116.38702","China, Bei Jing Shi, Xi Cheng Qu, 太平街5-2号 邮政编码: 100052", 太平街5-2号 邮政编码
10,2008-02-02 19:35:20,116.38702,39.8814,2,19,35,20,"39.8814,116.38702","China, Bei Jing Shi, Xi Cheng Qu, 太平街5-2号 邮政编码: 100052", 太平街5-2号 邮政编码
10,2008-02-02 19:37:50,116.38702,39.8814,2,19,37,50,"39.8814,116.38702","China, Bei Jing Shi, Xi Cheng Qu, 太平街5-2号 邮政编码: 100052", 太平街5-2号 邮政编码
10,2008-02-02 19:38:02,116.38703,39.8822,2,19,38,2,"39.8822,116.38703","3 Taiping St, Xi Cheng Qu, Bei Jing Shi, China, 100052",3 Taiping St
10,2008-02-02 19:38:49,116.38708,39.88468,2,19,38,49,"39.88468,116.38708","China, Bei Jing Shi, Xi Cheng Qu, 虎坊路15号 邮政编码: 100052", 虎坊路15号 邮政编码
10,2008-02-02 19:39:25,116.38723,39.88498,2,19,39,25,"39.88498,116.38723","29 Hufang Rd, Xi Cheng Qu, China, 100052",29 Hufang Rd
10,2008-02-02 19:39:33,116.38792,39.88493,2,19,39,33,"39.88493,116.38792","China, Bei Jing Shi, Xi Cheng Qu, 永安路寿长街1号 邮政编码: 100052", 永安路寿长街1号 邮政编码
10,2008-02-02 19:39:37,116.38832,39.88493,2,19,39,37,"39.88493,116.38832","47 Yongan Rd, Xi Cheng Qu, Bei Jing Shi, China, 100052",47 Yongan Rd
10,2008-02-02 19:40:11,116.391,39.88507,2,19,40,11,"39.88507,116.391","China, Bei Jing Shi, Xi Cheng Qu, Yongan Rd, 95号首都医科大学附属北京友谊医院1号楼 邮政编码: 100052", Yongan Rd
10,2008-02-02 19:40:57,116.39107,39.8851,2,19,40,57,"39.8851,116.39107","China, Bei Jing Shi, Xi Cheng Qu, Yongan Rd, 95号首都医科大学附属北京友谊医院1号楼 邮政编码: 100052", Yongan Rd
10,2008-02-02 19:42:13,116.39508,39.88557,2,19,42,13,"39.88557,116.39508","China, Bei Jing Shi, Xi Cheng Qu, 福长街11号 邮政编码: 100052", 福长街11号 邮政编码
10,2008-02-02 19:42:20,116.3954,39.8855,2,19,42,20,"39.8855,116.3954","6 Fuchang St, Xi Cheng Qu, Bei Jing Shi, China, 100052",6 Fuchang St
10,2008-02-02 19:42:27,116.3954,39.8855,2,19,42,27,"39.8855,116.3954","6 Fuchang St, Xi Cheng Qu, Bei Jing Shi, China, 100052",6 Fuchang St
10,2008-02-02 19:44:30,116.3954,39.8855,2,19,44,30,"39.8855,116.3954","6 Fuchang St, Xi Cheng Qu, Bei Jing Shi, China, 100052",6 Fuchang St
10,2008-02-02 19:44:45,116.39538,39.8855,2,19,44,45,"39.8855,116.39538","6 Fuchang St, Xi Cheng Qu, Bei Jing Shi, China, 100052",6 Fuchang St
10,2008-02-02 19:44:53,116.39595,39.88583,2,19,44,53,"39.88583,116.39595","6 Tianqiaoshichangxie St, Xi Cheng Qu, Bei Jing Shi, China, 100061",6 Tianqiaoshichangxie St
10,2008-02-02 19:46:36,116.40522,39.88683,2,19,46,36,"39.88683,116.40522","85 Tiantan Rd, Dong Cheng Qu, Bei Jing Shi, China, 100061",85 Tiantan Rd
10,2008-02-02 19:47:31,116.40665,39.88707,2,19,47,31,"39.88707,116.40665","China, Bei Jing Shi, Dong Cheng Qu, 北京崇文区天坛北门对面 邮政编码: 100061", 北京崇文区天坛北门对面 邮政编码
10,2008-02-02 19:47:33,116.40667,39.88707,2,19,47,33,"39.88707,116.40667","China, Bei Jing Shi, Dong Cheng Qu, 北京崇文区天坛北门对面 邮政编码: 100061", 北京崇文区天坛北门对面 邮政编码
10,2008-02-02 19:50:42,116.40667,39.88707,2,19,50,42,"39.88707,116.40667","China, Bei Jing Shi, Dong Cheng Qu, 北京崇文区天坛北门对面 邮政编码: 100061", 北京崇文区天坛北门对面 邮政编码
10,2008-02-02 19:51:36,116.4065,39.88712,2,19,51,36,"39.88712,116.4065","China, Bei Jing Shi, Dong Cheng Qu, 北京崇文区天坛北门对面 邮政编码: 100061", 北京崇文区天坛北门对面 邮政编码
10,2008-02-02 19:51:39,116.40643,39.88722,2,19,51,39,"39.88722,116.40643","China, Bei Jing Shi, Dong Cheng Qu, 金鱼池 邮政编码: 100061", 金鱼池 邮政编码
10,2008-02-02 19:52:19,116.40618,39.89088,2,19,52,19,"39.89088,116.40618","China, Bei Jing Shi, Dong Cheng Qu, 西晓市街北83号院 邮政编码: 100051", 西晓市街北83号院 邮政编码
10,2008-02-02 19:53:33,116.40622,39.8909,2,19,53,33,"39.8909,116.40622","China, Bei Jing Shi, Dong Cheng Qu, 西晓市街北83号院 邮政编码: 100051", 西晓市街北83号院 邮政编码
10,2008-02-02 19:54:42,116.40593,39.89557,2,19,54,42,"39.89557,116.40593","China, Bei Jing Shi, Dong Cheng Qu, 草厂二条34号 邮政编码: 100051", 草厂二条34号 邮政编码
10,2008-02-02 19:55:15,116.40595,39.89563,2,19,55,15,"39.89563,116.40595","China, Bei Jing Shi, Dong Cheng Qu, 草厂二条34号 邮政编码: 100051", 草厂二条34号 邮政编码
10,2008-02-02 19:55:42,116.40583,39.89743,2,19,55,42,"39.89743,116.40583","China, Bei Jing Shi, Dong Cheng Qu, 西兴隆街133号西5米 邮政编码: 100051", 西兴隆街133号西5米 邮政编码
10,2008-02-02 19:58:32,116.4058,39.89842,2,19,58,32,"39.89842,116.4058","China, Bei Jing Shi, Dong Cheng Qu, 南深沟胡同 邮政编码: 100051", 南深沟胡同 邮政编码
10,2008-02-02 20:05:03,116.40575,39.89932,2,20,5,3,"39.89932,116.40575","China, Bei Jing Shi, Dong Cheng Qu, 西打磨厂街西13号院 邮政编码: 100051", 西打磨厂街西13号院 邮政编码
10,2008-02-02 20:05:14,116.40543,39.8995,2,20,5,14,"39.8995,116.40543","China, Bei Jing Shi, Dong Cheng Qu, 北深沟胡同1号 邮政编码: 100051", 北深沟胡同1号 邮政编码
10,2008-02-02 20:05:17,116.40535,39.89953,2,20,5,17,"39.89953,116.40535","China, Bei Jing Shi, Dong Cheng Qu, 北深沟胡同1号 邮政编码: 100051", 北深沟胡同1号 邮政编码
10,2008-02-02 20:07:04,116.40083,39.90242,2,20,7,4,"39.90242,116.40083","China, Bei Jing Shi, Dong Cheng Qu, 前门东交民巷39号,天安宾馆东侧路北巷内 邮政编码: 100051", 前门东交民巷39号
10,2008-02-02 20:07:04,116.40083,39.90242,2,20,7,4,"39.90242,116.40083","China, Bei Jing Shi, Dong Cheng Qu, 前门东交民巷39号,天安宾馆东侧路北巷内 邮政编码: 100051", 前门东交民巷39号
10,2008-02-02 20:07:08,116.4008,39.90247,2,20,7,8,"39.90247,116.4008","China, Bei Jing Shi, Dong Cheng Qu, 前门东交民巷39号,天安宾馆东侧路北巷内 邮政编码: 100051", 前门东交民巷39号
10,2008-02-02 20:07:08,116.4008,39.90247,2,20,7,8,"39.90247,116.4008","China, Bei Jing Shi, Dong Cheng Qu, 前门东交民巷39号,天安宾馆东侧路北巷内 邮政编码: 100051", 前门东交民巷39号
10,2008-02-02 20:07:11,116.4008,39.9026,2,20,7,11,"39.9026,116.4008","China, Bei Jing Shi, Dong Cheng Qu, 前门东交民巷39号,天安宾馆东侧路北巷内 邮政编码: 100051", 前门东交民巷39号
10,2008-02-02 20:07:11,116.4008,39.9026,2,20,7,11,"39.9026,116.4008","China, Bei Jing Shi, Dong Cheng Qu, 前门东交民巷39号,天安宾馆东侧路北巷内 邮政编码: 100051", 前门东交民巷39号
10,2008-02-02 20:07:17,116.4008,39.90283,2,20,7,17,"39.90283,116.4008","37 E Jiaomin Ln, 前门 Dong Cheng Qu, Bei Jing Shi, China, 100051",37 E Jiaomin Ln
10,2008-02-02 20:08:29,116.40067,39.90428,2,20,8,29,"39.90428,116.40067","China, Bei Jing Shi, Dong Cheng Qu, 前门天安门广场东侧 邮政编码: 100051", 前门天安门广场东侧 邮政编码
10,2008-02-02 20:08:32,116.40067,39.90442,2,20,8,32,"39.90442,116.40067","China, Bei Jing Shi, Dong Cheng Qu, 前门天安门广场东侧 邮政编码: 100051", 前门天安门广场东侧 邮政编码
10,2008-02-02 20:08:37,116.40065,39.90455,2,20,8,37,"39.90455,116.40065","China, Bei Jing Shi, Dong Cheng Qu, 前门天安门广场东侧 邮政编码: 100051", 前门天安门广场东侧 邮政编码
10,2008-02-02 20:09:59,116.4006,39.90465,2,20,9,59,"39.90465,116.4006","China, Bei Jing Shi, Dong Cheng Qu, 前门天安门广场东侧 邮政编码: 100051", 前门天安门广场东侧 邮政编码
10,2008-02-02 20:10:02,116.40062,39.90477,2,20,10,2,"39.90477,116.40062","China, Bei Jing Shi, Dong Cheng Qu, 前门天安门广场东侧 邮政编码: 100051", 前门天安门广场东侧 邮政编码
10,2008-02-02 20:14:29,116.39887,39.91145,2,20,14,29,"39.91145,116.39887","China, Bei Jing Shi, Dong Cheng Qu, Working People's Culture Palace CN 北京市 东城区 天安门东侧 邮政编码: 100006", Working People's Culture Palace CN 北京市 东城区 天安门东侧 邮政编码
10,2008-02-03 05:25:47,116.39867,39.91143,3,5,25,47,"39.91143,116.39867","China, Bei Jing Shi, Dong Cheng Qu, Working People's Culture Palace CN 北京市 东城区 天安门东侧 邮政编码: 100006", Working People's Culture Palace CN 北京市 东城区 天安门东侧 邮政编码
10,2008-02-03 07:06:38,116.39942,39.91473,3,7,6,38,"39.91473,116.39942","China, Bei Jing Shi, Dong Cheng Qu, CN 北京市 东城区 200 米 邮政编码: 100006", CN 北京市 东城区 200 米 邮政编码
10,2008-02-03 07:06:47,116.3997,39.91472,3,7,6,47,"39.91472,116.3997","China, Bei Jing Shi, Dong Cheng Qu, CN 北京市 东城区 200 米 邮政编码: 100006", CN 北京市 东城区 200 米 邮政编码
10,2008-02-03 07:06:50,116.39977,39.91472,3,7,6,50,"39.91472,116.39977","China, Bei Jing Shi, Dong Cheng Qu, 貓貓大街88好 邮政编码: 100006", 貓貓大街88好 邮政编码
10,2008-02-03 10:17:44,116.3985,39.91142,3,10,17,44,"39.91142,116.3985","China, Bei Jing Shi, Dong Cheng Qu, Working People's Culture Palace CN 北京市 东城区 天安门东侧 邮政编码: 100006", Working People's Culture Palace CN 北京市 东城区 天安门东侧 邮政编码
10,2008-02-03 10:17:44,116.3985,39.91142,3,10,17,44,"39.91142,116.3985","China, Bei Jing Shi, Dong Cheng Qu, Working People's Culture Palace CN 北京市 东城区 天安门东侧 邮政编码: 100006", Working People's Culture Palace CN 北京市 东城区 天安门东侧 邮政编码
10,2008-02-03 10:21:35,116.39628,39.92192,3,10,21,35,"39.92192,116.39628","China, Bei Jing Shi, Dong Cheng Qu, 故宫博物馆御花园西北角 邮政编码: 100006", 故宫博物馆御花园西北角 邮政编码
10,2008-02-03 10:21:38,116.39613,39.92205,3,10,21,38,"39.92205,116.39613","China, Bei Jing Shi, Dong Cheng Qu, 故宫博物馆御花园西北角 邮政编码: 100006", 故宫博物馆御花园西北角 邮政编码
10,2008-02-03 10:22:59,116.39312,39.92692,3,10,22,59,"39.92692,116.39312","China, Bei Jing Shi, Xi Cheng Qu, 西安门景山西街11号 邮政编码: 100034", 西安门景山西街11号 邮政编码
10,2008-02-03 10:23:02,116.3929,39.92702,3,10,23,2,"39.92702,116.3929","2 Xuechi Hu Tong, 西安门 Xi Cheng Qu, Bei Jing Shi, China, 100034",2 Xuechi Hu Tong
10,2008-02-03 10:24:54,116.3901,39.93177,3,10,24,54,"39.93177,116.3901","2 Di'anmen W St, 西安门 Xi Cheng Qu, Bei Jing Shi, China, 100035",2 Di'anmen W St
10,2008-02-03 10:27:51,116.3898,39.93832,3,10,27,51,"39.93832,116.3898","China, Bei Jing Shi, Xi Cheng Qu, 前井胡同7 邮政编码: 100035", 前井胡同7 邮政编码
10,2008-02-03 10:28:14,116.38982,39.93835,3,10,28,14,"39.93835,116.38982","China, Bei Jing Shi, Xi Cheng Qu, 前井胡同7 邮政编码: 100035", 前井胡同7 邮政编码
10,2008-02-03 10:28:22,116.3898,39.93863,3,10,28,22,"39.93863,116.3898","China, Bei Jing Shi, Xi Cheng Qu, 前景胡同 邮政编码: 100035", 前景胡同 邮政编码
10,2008-02-03 10:29:14,116.38972,39.93872,3,10,29,14,"39.93872,116.38972","China, Bei Jing Shi, Xi Cheng Qu, 前景胡同 邮政编码: 100035", 前景胡同 邮政编码
10,2008-02-03 10:29:17,116.38963,39.93885,3,10,29,17,"39.93885,116.38963","China, Bei Jing Shi, Xi Cheng Qu, 大翔凤胡同16号 邮政编码: 100035", 大翔凤胡同16号 邮政编码
10,2008-02-03 10:29:27,116.38878,39.93925,3,10,29,27,"39.93925,116.38878","China, Bei Jing Shi, Xi Cheng Qu, 大翔凤胡同2号 邮政编码: 100035", 大翔凤胡同2号 邮政编码
10,2008-02-03 10:29:50,116.38593,39.93983,3,10,29,50,"39.93983,116.38593","China, Bei Jing Shi, Xi Cheng Qu, 后海南沿56号 邮政编码: 100035", 后海南沿56号 邮政编码
10,2008-02-03 10:31:44,116.37445,39.94667,3,10,31,44,"39.94667,116.37445","China, Bei Jing Shi, Xi Cheng Qu, 西海西沿7号 邮政编码: 100035", 西海西沿7号 邮政编码
10,2008-02-03 10:31:55,116.3737,39.94695,3,10,31,55,"39.94695,116.3737","China, Bei Jing Shi, Xi Cheng Qu, 板桥三条4号 邮政编码: 100035", 板桥三条4号 邮政编码
10,2008-02-03 10:31:59,116.37365,39.94713,3,10,31,59,"39.94713,116.37365","China, Bei Jing Shi, Xi Cheng Qu, 板桥三条3号 邮政编码: 100035", 板桥三条3号 邮政编码
10,2008-02-03 10:32:18,116.37403,39.94863,3,10,32,18,"39.94863,116.37403","China, Bei Jing Shi, Xi Cheng Qu, 德胜门西大街58号 邮政编码: 100035", 德胜门西大街58号 邮政编码
10,2008-02-03 10:32:18,116.37403,39.94863,3,10,32,18,"39.94863,116.37403","China, Bei Jing Shi, Xi Cheng Qu, 德胜门西大街58号 邮政编码: 100035", 德胜门西大街58号 邮政编码
10,2008-02-03 10:32:26,116.37403,39.94907,3,10,32,26,"39.94907,116.37403","China, Bei Jing Shi, Xi Cheng Qu, 积水潭地铁东北口 邮政编码: 100035", 积水潭地铁东北口 邮政编码
10,2008-02-03 10:32:52,116.3735,39.95012,3,10,32,52,"39.95012,116.3735","9 Bing Jiao Kou Hu Tong Ba Hao Yuan, Xi Cheng Qu, Bei Jing Shi, China, 100035",9 Bing Jiao Kou Hu Tong Ba Hao Yuan
10,2008-02-03 10:33:00,116.37312,39.9501,3,10,33,0,"39.9501,116.37312","9 Bing Jiao Kou Hu Tong Ba Hao Yuan, Xi Cheng Qu, Bei Jing Shi, China, 100035",9 Bing Jiao Kou Hu Tong Ba Hao Yuan
10,2008-02-03 10:33:28,116.3732,39.94983,3,10,33,28,"39.94983,116.3732","7 Bing Jiao Kou Hu Tong Ba Hao Yuan, Xi Cheng Qu, Bei Jing Shi, China, 100035",7 Bing Jiao Kou Hu Tong Ba Hao Yuan
10,2008-02-03 10:33:31,116.37298,39.94992,3,10,33,31,"39.94992,116.37298","7 Bing Jiao Kou Hu Tong Ba Hao Yuan, Xi Cheng Qu, Bei Jing Shi, China, 100035",7 Bing Jiao Kou Hu Tong Ba Hao Yuan
10,2008-02-03 10:34:07,116.36922,39.94968,3,10,34,7,"39.94968,116.36922","China, Bei Jing Shi, Hai Dian Qu, 小西天新外大街31号西院 邮政编码: 100082", 小西天新外大街31号西院 邮政编码
10,2008-02-03 10:35:25,116.3656,39.94975,3,10,35,25,"39.94975,116.3656","China, Bei Jing Shi, Hai Dian Qu, 小西天新外大街文慧园1号 邮政编码: 100082", 小西天新外大街文慧园1号 邮政编码
10,2008-02-03 10:35:28,116.36555,39.9498,3,10,35,28,"39.9498,116.36555","China, Bei Jing Shi, Hai Dian Qu, 小西天新外大街文慧园1号 邮政编码: 100082", 小西天新外大街文慧园1号 邮政编码
10,2008-02-03 10:35:57,116.36538,39.95235,3,10,35,57,"39.95235,116.36538","China, Bei Jing Shi, Hai Dian Qu, 小西天文慧园路4 邮政编码: 100082", 小西天文慧园路4 邮政编码
10,2008-02-03 10:36:00,116.36543,39.95242,3,10,36,0,"39.95242,116.36543","China, Bei Jing Shi, Hai Dian Qu, 小西天文慧园路4号 邮政编码: 100082", 小西天文慧园路4号 邮政编码
10,2008-02-03 10:36:37,116.3653,39.95325,3,10,36,37,"39.95325,116.3653","China, Bei Jing Shi, Hai Dian Qu, 明光村志强北园18栋 邮政编码: 100082", 明光村志强北园18栋 邮政编码
10,2008-02-03 10:36:40,116.36532,39.95352,3,10,36,40,"39.95352,116.36532","China, Bei Jing Shi, Hai Dian Qu, 小西天文慧园路 邮政编码: 100082", 小西天文慧园路 邮政编码
10,2008-02-03 10:36:51,116.36532,39.95428,3,10,36,51,"39.95428,116.36532","21 Zhi Qiang Bei Yuan, 小西天 Hai Dian Qu, Bei Jing Shi, China, 100082",21 Zhi Qiang Bei Yuan
10,2008-02-03 10:37:06,116.36527,39.95437,3,10,37,6,"39.95437,116.36527","21 Zhi Qiang Bei Yuan, 小西天 Hai Dian Qu, Bei Jing Shi, China, 100082",21 Zhi Qiang Bei Yuan
10,2008-02-03 10:37:06,116.36527,39.95437,3,10,37,6,"39.95437,116.36527","21 Zhi Qiang Bei Yuan, 小西天 Hai Dian Qu, Bei Jing Shi, China, 100082",21 Zhi Qiang Bei Yuan
10,2008-02-03 10:37:33,116.36492,39.9563,3,10,37,33,"39.9563,116.36492","China, Bei Jing Shi, Hai Dian Qu, 小西天学院南路10号 邮政编码: 100082", 小西天学院南路10号 邮政编码
10,2008-02-03 10:39:31,116.36398,39.96612,3,10,39,31,"39.96612,116.36398","40 N 3rd Ring Middle Rd, Beitaipingzhuang, Hai Dian Qu, Bei Jing Shi, China, 100088",40 N 3rd Ring Middle Rd
10,2008-02-03 10:40:43,116.36395,39.96632,3,10,40,43,"39.96632,116.36395","China, Bei Jing Shi, Hai Dian Qu, Beitaipingzhuang, 北三环中路40号国美电器院东南 邮政编码: 100088", Beitaipingzhuang
10,2008-02-03 10:41:40,116.36377,39.96665,3,10,41,40,"39.96665,116.36377","China, Bei Jing Shi, Hai Dian Qu, Beitaipingzhuang, 北三环中路 邮政编码: 100088", Beitaipingzhuang
10,2008-02-03 10:41:43,116.36363,39.96668,3,10,41,43,"39.96668,116.36363","China, Bei Jing Shi, Hai Dian Qu, Beitaipingzhuang, 北三环中路 邮政编码: 100088", Beitaipingzhuang
10,2008-02-03 10:45:25,116.35925,39.9713,3,10,45,25,"39.9713,116.35925","China, Bei Jing Shi, Hai Dian Qu, 北影院内 邮政编码: 100088", 北影院内 邮政编码
10,2008-02-03 10:46:07,116.3594,39.96733,3,10,46,7,"39.96733,116.3594","China, Bei Jing Shi, Hai Dian Qu, 北三环中路44号 邮政编码: 100088", 北三环中路44号 邮政编码
10,2008-02-03 10:48:38,116.35883,39.9667,3,10,48,38,"39.9667,116.35883","46 N 3rd Ring Middle Rd, Hai Dian Qu, Bei Jing Shi, China, 100088",46 N 3rd Ring Middle Rd
10,2008-02-03 10:49:29,116.35883,39.9667,3,10,49,29,"39.9667,116.35883","46 N 3rd Ring Middle Rd, Hai Dian Qu, Bei Jing Shi, China, 100088",46 N 3rd Ring Middle Rd
10,2008-02-03 10:49:46,116.35883,39.9667,3,10,49,46,"39.9667,116.35883","46 N 3rd Ring Middle Rd, Hai Dian Qu, Bei Jing Shi, China, 100088",46 N 3rd Ring Middle Rd
10,2008-02-03 11:00:17,116.35883,39.9667,3,11,0,17,"39.9667,116.35883","46 N 3rd Ring Middle Rd, Hai Dian Qu, Bei Jing Shi, China, 100088",46 N 3rd Ring Middle Rd
10,2008-02-03 11:01:33,116.35053,39.9666,3,11,1,33,"39.9666,116.35053","China, Bei Jing Shi, Hai Dian Qu, 西土城路25号法苑楼 邮政编码: 100088", 西土城路25号法苑楼 邮政编码
10,2008-02-03 11:01:51,116.34853,39.96737,3,11,1,51,"39.96737,116.34853","China, Bei Jing Shi, Hai Dian Qu, 北三环西路辅路 邮政编码: 100088", 北三环西路辅路 邮政编码
10,2008-02-03 11:06:25,116.34735,39.98502,3,11,6,25,"39.98502,116.34735","China, Bei Jing Shi, Hai Dian Qu, 学院路37号,与北四环中路路口西南角,学院桥南侧路西,航空航天大学内 邮政编码: 100190", 学院路37号
10,2008-02-03 11:08:33,116.3383,39.98573,3,11,8,33,"39.98573,116.3383","China, Bei Jing Shi, Hai Dian Qu, 北四环中路280号 邮政编码: 100190", 北四环中路280号 邮政编码
10,2008-02-03 11:09:11,116.3344,39.9856,3,11,9,11,"39.9856,116.3344","China, Bei Jing Shi, Hai Dian Qu, 北四环中路辅路 邮政编码: 100190", 北四环中路辅路 邮政编码
10,2008-02-03 11:09:14,116.33433,39.98567,3,11,9,14,"39.98567,116.33433","China, Bei Jing Shi, Hai Dian Qu, 北四环西路10号 邮政编码: 100190", 北四环西路10号 邮政编码
10,2008-02-03 11:09:21,116.33433,39.98588,3,11,9,21,"39.98588,116.33433","China, Bei Jing Shi, Hai Dian Qu, 北四环西路10号 邮政编码: 100190", 北四环西路10号 邮政编码
10,2008-02-03 11:10:00,116.33432,39.98585,3,11,10,0,"39.98585,116.33432","China, Bei Jing Shi, Hai Dian Qu, 北四环西路10号 邮政编码: 100190", 北四环西路10号 邮政编码
10,2008-02-03 11:10:15,116.33455,39.98478,3,11,10,15,"39.98478,116.33455","China, Bei Jing Shi, Hai Dian Qu, 中关村东路66号科贸电子城1楼 邮政编码: 100190", 中关村东路66号科贸电子城1楼 邮政编码
10,2008-02-03 11:11:28,116.34207,39.98512,3,11,11,28,"39.98512,116.34207","China, Bei Jing Shi, Hai Dian Qu, 学院路37号院 邮政编码: 100190", 学院路37号院 邮政编码
10,2008-02-03 11:11:44,116.3423,39.98517,3,11,11,44,"39.98517,116.3423","China, Bei Jing Shi, Hai Dian Qu, 学院路37号院 邮政编码: 100190", 学院路37号院 邮政编码
10,2008-02-03 11:12:36,116.34703,39.98458,3,11,12,36,"39.98458,116.34703","35 Xueyuan Rd, Hai Dian Qu, Bei Jing Shi, China, 100190",35 Xueyuan Rd
10,2008-02-03 11:13:57,116.35132,39.97488,3,11,13,57,"39.97488,116.35132","2 Xi Tu Cheng Lu Yi Hao Yuan, Hai Dian Qu, Bei Jing Shi, China, 100088",2 Xi Tu Cheng Lu Yi Hao Yuan
10,2008-02-03 11:14:07,116.34733,39.97575,3,11,14,7,"39.97575,116.34733","14 Zhichun Rd, Hai Dian Qu, Bei Jing Shi, China, 100098",14 Zhichun Rd
10,2008-02-03 11:14:14,116.34723,39.97548,3,11,14,14,"39.97548,116.34723","1 Luo Zhuang Dong Li, Hai Dian Qu, Bei Jing Shi, China, 100098",1 Luo Zhuang Dong Li
10,2008-02-03 11:15:53,116.34663,39.97332,3,11,15,53,"39.97332,116.34663","China, Bei Jing Shi, Hai Dian Qu, 太月园12号楼107房 邮政编码: 100098", 太月园12号楼107房 邮政编码
10,2008-02-03 11:15:53,116.34663,39.97332,3,11,15,53,"39.97332,116.34663","China, Bei Jing Shi, Hai Dian Qu, 太月园12号楼107房 邮政编码: 100098", 太月园12号楼107房 邮政编码
10,2008-02-03 11:16:05,116.34665,39.97205,3,11,16,5,"39.97205,116.34665","China, Bei Jing Shi, Hai Dian Qu, 罗园南里2号 邮政编码: 100098", 罗园南里2号 邮政编码
10,2008-02-03 11:16:08,116.34645,39.97195,3,11,16,8,"39.97195,116.34645","China, Bei Jing Shi, Hai Dian Qu, 罗园南里2号 邮政编码: 100098", 罗园南里2号 邮政编码
10,2008-02-03 11:17:05,116.34212,39.97232,3,11,17,5,"39.97232,116.34212","China, Bei Jing Shi, Hai Dian Qu, CN 北京市 海淀区 B3 层 邮政编码: 100098", CN 北京市 海淀区 B3 层 邮政编码
10,2008-02-03 11:17:08,116.34212,39.9723,3,11,17,8,"39.9723,116.34212","China, Bei Jing Shi, Hai Dian Qu, CN 北京市 海淀区 B3 层 邮政编码: 100098", CN 北京市 海淀区 B3 层 邮政编码
10,2008-02-03 11:17:19,116.3421,39.9724,3,11,17,19,"39.9724,116.3421","China, Bei Jing Shi, Hai Dian Qu, CN 北京市 海淀区 B3 层 邮政编码: 100098", CN 北京市 海淀区 B3 层 邮政编码
10,2008-02-03 11:17:44,116.34222,39.974,3,11,17,44,"39.974,116.34222","China, Bei Jing Shi, Hai Dian Qu, 知春路 邮政编码: 100098", 知春路 邮政编码
10,2008-02-03 11:17:47,116.34217,39.97425,3,11,17,47,"39.97425,116.34217","China, Bei Jing Shi, Hai Dian Qu, 知春路 邮政编码: 100098", 知春路 邮政编码
10,2008-02-03 11:17:58,116.34215,39.975,3,11,17,58,"39.975,116.34215","China, Bei Jing Shi, Hai Dian Qu, 知春路罗庄西里碧兴园 邮政编码: 100098", 知春路罗庄西里碧兴园 邮政编码
10,2008-02-03 11:18:50,116.34693,39.97508,3,11,18,50,"39.97508,116.34693","China, Bei Jing Shi, Hai Dian Qu, 知春路罗庄东里,太月园小区北门北侧 邮政编码: 100098", 知春路罗庄东里
10,2008-02-03 11:18:53,116.34702,39.975,3,11,18,53,"39.975,116.34702","China, Bei Jing Shi, Hai Dian Qu, 知春路罗庄东里,太月园小区北门北侧 邮政编码: 100098", 知春路罗庄东里
10,2008-02-03 11:22:36,116.34888,39.95387,3,11,22,36,"39.95387,116.34888","China, Bei Jing Shi, Hai Dian Qu, 交大东路18-7号 邮政编码: 100082", 交大东路18-7号 邮政编码
10,2008-02-03 11:22:54,116.34897,39.95262,3,11,22,54,"39.95262,116.34897","China, Bei Jing Shi, Hai Dian Qu, 交大东路30号 邮政编码: 100082", 交大东路30号 邮政编码
10,2008-02-03 11:23:48,116.34965,39.94942,3,11,23,48,"39.94942,116.34965","8 Jiao Da Dong Lu Wu Shi Er Hao Yuan, Hai Dian Qu, Bei Jing Shi, China, 100082",8 Jiao Da Dong Lu Wu Shi Er Hao Yuan
10,2008-02-03 11:24:57,116.35002,39.94698,3,11,24,57,"39.94698,116.35002","China, Bei Jing Shi, Hai Dian Qu, CN 北京市 海淀区 3 层 邮政编码: 100082", CN 北京市 海淀区 3 层 邮政编码
10,2008-02-03 11:26:27,116.34975,39.94293,3,11,26,27,"39.94293,116.34975","China, Bei Jing Shi, Hai Dian Qu, 西直门外大街1号 邮政编码: 100082", 西直门外大街1号 邮政编码
10,2008-02-03 11:27:37,116.34898,39.93867,3,11,27,37,"39.93867,116.34898","China, Bei Jing Shi, Xi Cheng Qu, 西直门外大街18号 邮政编码: 100033", 西直门外大街18号 邮政编码
10,2008-02-03 11:28:48,116.34908,39.93657,3,11,28,48,"39.93657,116.34908","2 Yu Shu Guan Dong Li, Xi Cheng Qu, Bei Jing Shi, China, 100033",2 Yu Shu Guan Dong Li
10,2008-02-03 11:28:51,116.3489,39.93647,3,11,28,51,"39.93647,116.3489","2 Yu Shu Guan Dong Li, Xi Cheng Qu, Bei Jing Shi, China, 100033",2 Yu Shu Guan Dong Li
10,2008-02-03 11:29:00,116.34827,39.93638,3,11,29,0,"39.93638,116.34827","China, Bei Jing Shi, Xi Cheng Qu, 西直门外南路,与榆树馆西里路口以南40米路东 邮政编码: 100033", 西直门外南路
10,2008-02-03 11:29:20,116.3479,39.93642,3,11,29,20,"39.93642,116.3479","China, Bei Jing Shi, Xi Cheng Qu, 榆树馆胡同1号 邮政编码: 100044", 榆树馆胡同1号 邮政编码
10,2008-02-03 11:29:35,116.34662,39.9364,3,11,29,35,"39.9364,116.34662","China, Bei Jing Shi, Xi Cheng Qu, 车公庄大街北里44号 邮政编码: 100044", 车公庄大街北里44号 邮政编码
10,2008-02-03 11:31:42,116.35178,39.9391,3,11,31,42,"39.9391,116.35178","China, Bei Jing Shi, Xi Cheng Qu, Beilishi Rd, 高粱桥南侧 邮政编码: 100033", Beilishi Rd
10,2008-02-03 11:31:54,116.35218,39.9391,3,11,31,54,"39.9391,116.35218","China, Bei Jing Shi, Xi Cheng Qu, 北礼士路 邮政编码: 100033", 北礼士路 邮政编码
10,2008-02-03 11:31:57,116.35218,39.93917,3,11,31,57,"39.93917,116.35218","China, Bei Jing Shi, Xi Cheng Qu, 北礼士路 邮政编码: 100033", 北礼士路 邮政编码
10,2008-02-03 11:32:12,116.3509,39.93925,3,11,32,12,"39.93925,116.3509","China, Bei Jing Shi, Xi Cheng Qu, 西直门外大街 邮政编码: 100033", 西直门外大街 邮政编码
10,2008-02-03 11:32:31,116.34977,39.94007,3,11,32,31,"39.94007,116.34977","China, Bei Jing Shi, Xi Cheng Qu, 西直门外大街49号 邮政编码: 100033", 西直门外大街49号 邮政编码
10,2008-02-03 11:32:34,116.34967,39.94023,3,11,32,34,"39.94023,116.34967","China, Bei Jing Shi, Xi Cheng Qu, 西直门外大街51号 邮政编码: 100033", 西直门外大街51号 邮政编码
10,2008-02-03 11:32:41,116.3497,39.94072,3,11,32,41,"39.94072,116.3497","China, Bei Jing Shi, Xi Cheng Qu, Xizhimen Outer Ave, 西直门外大街丙51 邮政编码: 100033", Xizhimen Outer Ave
10,2008-02-03 11:33:17,116.3527,39.94142,3,11,33,17,"39.94142,116.3527","China, Bei Jing Shi, Xi Cheng Qu, 凯德大厦 邮政编码: 100082", 凯德大厦 邮政编码
10,2008-02-03 11:33:21,116.35277,39.94145,3,11,33,21,"39.94145,116.35277","China, Bei Jing Shi, Xi Cheng Qu, 凯德大厦 邮政编码: 100082", 凯德大厦 邮政编码
10,2008-02-03 11:33:24,116.35282,39.94155,3,11,33,24,"39.94155,116.35282","China, Bei Jing Shi, Xi Cheng Qu, Xizhimen Outer Ave, 1号院2 邮政编码: 100082", Xizhimen Outer Ave
10,2008-02-03 11:33:33,116.3528,39.94215,3,11,33,33,"39.94215,116.3528","China, Bei Jing Shi, Xi Cheng Qu, 西直门外大街1号凯德Mall5F 邮政编码: 100082", 西直门外大街1号凯德Mall5F 邮政编码
10,2008-02-03 11:33:52,116.35332,39.94325,3,11,33,52,"39.94325,116.35332","China, Bei Jing Shi, Xi Cheng Qu, Gaoliangqiao Rd, 2号城铁大厦 邮政编码: 100082", Gaoliangqiao Rd
10,2008-02-03 11:34:42,116.35822,39.94445,3,11,34,42,"39.94445,116.35822","China, Bei Jing Shi, Xi Cheng Qu, 北顺城街11号 邮政编码: 100082", 北顺城街11号 邮政编码
10,2008-02-03 11:36:09,116.36573,39.9471,3,11,36,9,"39.9471,116.36573","China, Bei Jing Shi, Hai Dian Qu, 小西天富河大街1号物资学院惠民服务区 邮政编码: 100082", 小西天富河大街1号物资学院惠民服务区 邮政编码
10,2008-02-03 11:36:40,116.37102,39.94747,3,11,36,40,"39.94747,116.37102","China, Bei Jing Shi, Xi Cheng Qu, 后坑胡同 邮政编码: 100082", 后坑胡同 邮政编码
10,2008-02-03 11:36:45,116.3716,39.94792,3,11,36,45,"39.94792,116.3716","China, Bei Jing Shi, Xi Cheng Qu, 新街口北大街甲96号（近万特珠宝商场） 邮政编码: 100082", 新街口北大街甲96号（近万特珠宝商场） 邮政编码
10,2008-02-03 11:37:08,116.37313,39.95042,3,11,37,8,"39.95042,116.37313","9 Bing Jiao Kou Hu Tong Ba Hao Yuan, Xi Cheng Qu, Bei Jing Shi, China, 100035",9 Bing Jiao Kou Hu Tong Ba Hao Yuan
10,2008-02-03 11:40:09,116.37498,39.97648,3,11,40,9,"39.97648,116.37498","China, Bei Jing Shi, Hai Dian Qu, 北太平庄路与北土城西路交口东80米 邮政编码: 100017", 北太平庄路与北土城西路交口东80米 邮政编码
10,2008-02-03 11:41:56,116.37045,39.99148,3,11,41,56,"39.99148,116.37045","China, Bei Jing Shi, Hai Dian Qu, 志新东路,志新村小区以北约85米路东 邮政编码: 100191", 志新东路
10,2008-02-03 11:44:05,116.36073,40.00458,3,11,44,5,"40.00458,116.36073","17 Qinghua E Rd, Hai Dian Qu, Bei Jing Shi, China, 100107",17 Qinghua E Rd
10,2008-02-03 11:45:02,116.35613,40.011,3,11,45,2,"40.011,116.35613","China, Bei Jing Shi, Hai Dian Qu, 学清路,与林业大学北路路口以东约200米路北巷内 邮政编码: 100107", 学清路
10,2008-02-03 11:47:22,116.34948,40.0195,3,11,47,22,"40.0195,116.34948","China, Bei Jing Shi, Hai Dian Qu, 大东路南口6号 邮政编码: 100096", 大东路南口6号 邮政编码
10,2008-02-03 11:47:30,116.34955,40.02035,3,11,47,30,"40.02035,116.34955","China, Bei Jing Shi, Hai Dian Qu, 清河四街南口一号北京市北方种业交易市场 邮政编码: 100096", 清河四街南口一号北京市北方种业交易市场 邮政编码
10,2008-02-03 11:47:34,116.34993,40.02072,3,11,47,34,"40.02072,116.34993","China, Bei Jing Shi, Hai Dian Qu, 清河南镇 邮政编码: 100096", 清河南镇 邮政编码
10,2008-02-03 11:51:31,116.40043,40.02078,3,11,51,31,"40.02078,116.40043","2CC2+85 Chaoyang, Beijing, China",2CC2+85 Chaoyang
10,2008-02-03 11:51:58,116.40447,40.01967,3,11,51,58,"40.01967,116.40447","2C93+VQ Chaoyang, Beijing, China",2C93+VQ Chaoyang
10,2008-02-03 11:52:06,116.4055,40.02015,3,11,52,6,"40.02015,116.4055","2CC4+36 Chaoyang, Beijing, China",2CC4+36 Chaoyang
10,2008-02-03 11:52:10,116.40575,40.0206,3,11,52,10,"40.0206,116.40575","2CC4+JFF, Chaoyang, Beijing, China, 100101",2CC4+JFF
10,2008-02-03 11:52:18,116.40545,40.02155,3,11,52,18,"40.02155,116.40545","2CC4+JFF, Chaoyang, Beijing, China, 100101",2CC4+JFF
10,2008-02-03 11:52:39,116.40315,40.02325,3,11,52,39,"40.02325,116.40315","China, Bei Jing Shi, Chao Yang Qu, 北五环中路 邮政编码: 100101", 北五环中路 邮政编码
10,2008-02-03 11:52:47,116.40317,40.02433,3,11,52,47,"40.02433,116.40317","China, Bei Jing Shi, Chao Yang Qu, 北五环中路 邮政编码: 100101", 北五环中路 邮政编码
10,2008-02-03 13:02:31,116.41142,40.02532,3,13,2,31,"40.02532,116.41142","2CG6+CHC, Yangshan Rd, Chao Yang Qu, Bei Jing Shi, China, 102218",2CG6+CHC
10,2008-02-03 13:02:34,116.41122,40.02528,3,13,2,34,"40.02528,116.41122","2CG6+CHC, Yangshan Rd, Chao Yang Qu, Bei Jing Shi, China, 102218",2CG6+CHC
10,2008-02-03 13:03:10,116.4085,40.02628,3,13,3,10,"40.02628,116.4085","2CG5+GC Chaoyang, Beijing, China",2CG5+GC Chaoyang
10,2008-02-03 13:03:14,116.4085,40.02647,3,13,3,14,"40.02647,116.4085","2CG5+HC Chaoyang, Beijing, China",2CG5+HC Chaoyang
10,2008-02-03 13:03:34,116.40855,40.02687,3,13,3,34,"40.02687,116.40855","China, Bei Jing Shi, Chao Yang Qu, 安立路25号 邮政编码: 102218", 安立路25号 邮政编码
10,2008-02-03 13:03:55,116.40867,40.02802,3,13,3,55,"40.02802,116.40867","China, Bei Jing Shi, Chao Yang Qu, Anli Rd, 科荟路33号奥林匹克森林公园南园内 邮政编码: 102218", Anli Rd
10,2008-02-03 13:03:58,116.40855,40.02795,3,13,3,58,"40.02795,116.40855","China, Bei Jing Shi, Chao Yang Qu, Anli Rd, 科荟路33号奥林匹克森林公园南园内 邮政编码: 102218", Anli Rd
10,2008-02-03 13:04:23,116.40843,40.02648,3,13,4,23,"40.02648,116.40843","2CG5+H9 Chaoyang, Beijing, China",2CG5+H9 Chaoyang
10,2008-02-03 13:06:23,116.40833,40.02202,3,13,6,23,"40.02202,116.40833","2CC5+VC8, Anli Rd, Chao Yang Qu, Bei Jing Shi, China, 102218",2CC5+VC8
10,2008-02-03 13:06:26,116.40813,40.02193,3,13,6,26,"40.02193,116.40813","2CC5+VC8, Anli Rd, Chao Yang Qu, Bei Jing Shi, China, 102218",2CC5+VC8
10,2008-02-03 13:06:32,116.40745,40.02185,3,13,6,32,"40.02185,116.40745","2CC4+XX8, Yangshan Brg, Chao Yang Qu, Bei Jing Shi, China, 102218",2CC4+XX8
10,2008-02-03 13:06:38,116.4067,40.02148,3,13,6,38,"40.02148,116.4067","2CC4+JFF, Chaoyang, Beijing, China, 100101",2CC4+JFF
10,2008-02-03 13:07:06,116.40287,40.02122,3,13,7,6,"40.02122,116.40287","2CC2+9XH, Chaoyang, Beijing, China, 100101",2CC2+9XH
10,2008-02-03 13:08:56,116.40287,40.02122,3,13,8,56,"40.02122,116.40287","2CC2+9XH, Chaoyang, Beijing, China, 100101",2CC2+9XH
10,2008-02-03 13:09:01,116.40262,40.02118,3,13,9,1,"40.02118,116.40262","2CC2+9XH, Chaoyang, Beijing, China, 100101",2CC2+9XH
10,2008-02-03 13:09:04,116.40252,40.02118,3,13,9,4,"40.02118,116.40252","2CC2+9XH, Chaoyang, Beijing, China, 100101",2CC2+9XH
10,2008-02-03 13:09:28,116.40238,40.02077,3,13,9,28,"40.02077,116.40238","2CC2+9XH, Chaoyang, Beijing, China, 100101",2CC2+9XH
10,2008-02-03 13:10:36,116.4016,40.00978,3,13,10,36,"40.00978,116.4016","2C52+XW8, Kehui Rd, Chao Yang Qu, Bei Jing Shi, China, 100101",2C52+XW8
10,2008-02-03 13:10:51,116.40158,40.00838,3,13,10,51,"40.00838,116.40158","China, Bei Jing Shi, Chao Yang Qu, 大屯慧忠北里 邮政编码: 100101", 大屯慧忠北里 邮政编码
10,2008-02-03 13:11:45,116.40158,40.00833,3,13,11,45,"40.00833,116.40158","China, Bei Jing Shi, Chao Yang Qu, 大屯慧忠北里 邮政编码: 100101", 大屯慧忠北里 邮政编码
10,2008-02-03 13:11:45,116.40158,40.00833,3,13,11,45,"40.00833,116.40158","China, Bei Jing Shi, Chao Yang Qu, 大屯慧忠北里 邮政编码: 100101", 大屯慧忠北里 邮政编码
10,2008-02-03 13:12:32,116.40157,40.00467,3,13,12,32,"40.00467,116.40157","China, Bei Jing Shi, Chao Yang Qu, 大屯慧忠北里415号 邮政编码: 100101", 大屯慧忠北里415号 邮政编码
10,2008-02-03 13:13:22,116.4015,40.00155,3,13,13,22,"40.00155,116.4015","China, Bei Jing Shi, Chao Yang Qu, 大屯 Beichen E Rd, 6号院-64 邮政编码: 100101", 大屯 Beichen E Rd
10,2008-02-03 13:13:50,116.40143,40.00148,3,13,13,50,"40.00148,116.40143","China, Bei Jing Shi, Chao Yang Qu, 大屯 Beichen E Rd, 6号院-64 邮政编码: 100101", 大屯 Beichen E Rd
10,2008-02-03 13:18:28,116.40108,39.98872,3,13,18,28,"39.98872,116.40108","China, Bei Jing Shi, Chao Yang Qu, 北辰东路8号亚运村汇宾大厦1715号 邮政编码: 100101", 北辰东路8号亚运村汇宾大厦1715号 邮政编码
10,2008-02-03 13:18:31,116.40087,39.98847,3,13,18,31,"39.98847,116.40087","China, Bei Jing Shi, Chao Yang Qu, 北辰东路8号亚运村汇宾大厦1715号 邮政编码: 100101", 北辰东路8号亚运村汇宾大厦1715号 邮政编码
10,2008-02-03 13:18:48,116.39942,39.98725,3,13,18,48,"39.98725,116.39942","China, Bei Jing Shi, Chao Yang Qu, 北四环中路辅路 邮政编码: 100101", 北四环中路辅路 邮政编码
10,2008-02-03 13:18:53,116.39905,39.98722,3,13,18,53,"39.98722,116.39905","China, Bei Jing Shi, Chao Yang Qu, 北四环中路辅路 邮政编码: 100101", 北四环中路辅路 邮政编码
10,2008-02-03 13:22:10,116.37075,39.98648,3,13,22,10,"39.98648,116.37075","China, Bei Jing Shi, Hai Dian Qu, 花园东路8号 邮政编码: 100191", 花园东路8号 邮政编码
10,2008-02-03 13:22:13,116.37042,39.98672,3,13,22,13,"39.98672,116.37042","China, Bei Jing Shi, Hai Dian Qu, 志新桥 邮政编码: 100191", 志新桥 邮政编码
10,2008-02-03 13:22:16,116.37037,39.98703,3,13,22,16,"39.98703,116.37037","China, Bei Jing Shi, Hai Dian Qu, 志新桥 邮政编码: 100191", 志新桥 邮政编码
10,2008-02-03 13:23:48,116.37502,39.9759,3,13,23,48,"39.9759,116.37502","China, Bei Jing Shi, Hai Dian Qu, 北土城西路 邮政编码: 100017", 北土城西路 邮政编码
10,2008-02-03 13:26:07,116.37305,39.95948,3,13,26,7,"39.95948,116.37305","11 Deshengmenwai St, Xi Cheng Qu, Bei Jing Shi, China, 100120",11 Deshengmenwai St
10,2008-02-03 13:26:10,116.37307,39.95942,3,13,26,10,"39.95942,116.37307","11 Deshengmenwai St, Xi Cheng Qu, Bei Jing Shi, China, 100120",11 Deshengmenwai St
10,2008-02-03 13:26:26,116.37302,39.95875,3,13,26,26,"39.95875,116.37302","China, Bei Jing Shi, Xi Cheng Qu, 新康街3-9-12号 邮政编码: 100120", 新康街3-9-12号 邮政编码
10,2008-02-03 13:27:20,116.37302,39.95875,3,13,27,20,"39.95875,116.37302","China, Bei Jing Shi, Xi Cheng Qu, 新康街3-9-12号 邮政编码: 100120", 新康街3-9-12号 邮政编码
10,2008-02-03 13:29:47,116.37302,39.95875,3,13,29,47,"39.95875,116.37302","China, Bei Jing Shi, Xi Cheng Qu, 新康街3-9-12号 邮政编码: 100120", 新康街3-9-12号 邮政编码
10,2008-02-03 13:29:58,116.37287,39.9587,3,13,29,58,"39.9587,116.37287","China, Bei Jing Shi, Xi Cheng Qu, 新康街3-9-12号 邮政编码: 100120", 新康街3-9-12号 邮政编码
10,2008-02-03 13:30:23,116.37285,39.95752,3,13,30,23,"39.95752,116.37285","9 Xin Jie Kou Wai Da Jie Shi Liu Hao Yuan, Xi Cheng Qu, Bei Jing Shi, China, 100120",9 Xin Jie Kou Wai Da Jie Shi Liu Hao Yuan
10,2008-02-03 13:32:11,116.37285,39.95335,3,13,32,11,"39.95335,116.37285","China, Bei Jing Shi, Xi Cheng Qu, 新外大街28-9号 邮政编码: 100035", 新外大街28-9号 邮政编码
10,2008-02-03 13:32:56,116.37288,39.95288,3,13,32,56,"39.95288,116.37288","China, Bei Jing Shi, Xi Cheng Qu, 新外大街28号新8 邮政编码: 100035", 新外大街28号新8 邮政编码
10,2008-02-03 13:33:00,116.37298,39.95283,3,13,33,0,"39.95283,116.37298","China, Bei Jing Shi, Xi Cheng Qu, 新外大街28号新8 邮政编码: 100035", 新外大街28号新8 邮政编码
10,2008-02-03 13:33:12,116.37307,39.95273,3,13,33,12,"39.95273,116.37307","China, Bei Jing Shi, Xi Cheng Qu, 新外大街28号新8 邮政编码: 100035", 新外大街28号新8 邮政编码
10,2008-02-03 13:33:30,116.37292,39.95238,3,13,33,30,"39.95238,116.37292","China, Bei Jing Shi, Xi Cheng Qu, 新外大街34-3号 邮政编码: 100035", 新外大街34-3号 邮政编码
10,2008-02-03 13:34:33,116.37332,39.95208,3,13,34,33,"39.95208,116.37332","China, Bei Jing Shi, Xi Cheng Qu, 新外大街34-3号 邮政编码: 100035", 新外大街34-3号 邮政编码
10,2008-02-03 13:35:01,116.37285,39.95188,3,13,35,1,"39.95188,116.37285","China, Bei Jing Shi, Xi Cheng Qu, 新外大街34-4号 邮政编码: 100035", 新外大街34-4号 邮政编码
10,2008-02-03 13:36:06,116.37293,39.95093,3,13,36,6,"39.95093,116.37293","11 Bing Jiao Kou Hu Tong Ba Hao Yuan, Xi Cheng Qu, Bei Jing Shi, China, 100035",11 Bing Jiao Kou Hu Tong Ba Hao Yuan
10,2008-02-03 13:36:33,116.37278,39.95008,3,13,36,33,"39.95008,116.37278","China, Bei Jing Shi, Xi Cheng Qu, 白家庄冰窖口胡同八号院9栋 邮政编码: 100035", 白家庄冰窖口胡同八号院9栋 邮政编码
10,2008-02-03 13:36:40,116.37268,39.95002,3,13,36,40,"39.95002,116.37268","8 Bing Jiao Kou Hu Tong Ba Hao Yuan, Xi Cheng Qu, Bei Jing Shi, China, 100035",8 Bing Jiao Kou Hu Tong Ba Hao Yuan
10,2008-02-03 13:37:08,116.36875,39.94962,3,13,37,8,"39.94962,116.36875","China, Bei Jing Shi, Hai Dian Qu, 小西天新外大街31号西院 邮政编码: 100082", 小西天新外大街31号西院 邮政编码
10,2008-02-03 13:37:37,116.36583,39.94973,3,13,37,37,"39.94973,116.36583","China, Bei Jing Shi, Hai Dian Qu, 小西天新外大街文慧园1号 邮政编码: 100082", 小西天新外大街文慧园1号 邮政编码
10,2008-02-03 13:38:53,116.36583,39.94967,3,13,38,53,"39.94967,116.36583","China, Bei Jing Shi, Hai Dian Qu, 小西天新外大街文慧园1号 邮政编码: 100082", 小西天新外大街文慧园1号 邮政编码
10,2008-02-03 13:38:57,116.36555,39.94962,3,13,38,57,"39.94962,116.36555","China, Bei Jing Shi, Hai Dian Qu, 小西天新外大街文慧园1号 邮政编码: 100082", 小西天新外大街文慧园1号 邮政编码
10,2008-02-03 13:39:19,116.3655,39.94835,3,13,39,19,"39.94835,116.3655","China, Bei Jing Shi, Hai Dian Qu, 小西天德胜门西大街5号 邮政编码: 100082", 小西天德胜门西大街5号 邮政编码
10,2008-02-03 13:40:15,116.36557,39.94748,3,13,40,15,"39.94748,116.36557","2 De Sheng Men Xi Da Jie Jia Wu Hao Yuan, 小西天 Hai Dian Qu, Bei Jing Shi, China, 100082",2 De Sheng Men Xi Da Jie Jia Wu Hao Yuan
10,2008-02-03 13:40:18,116.36538,39.9474,3,13,40,18,"39.9474,116.36538","2 De Sheng Men Xi Da Jie Jia Wu Hao Yuan, 小西天 Hai Dian Qu, Bei Jing Shi, China, 100082",2 De Sheng Men Xi Da Jie Jia Wu Hao Yuan
10,2008-02-03 13:41:38,116.35717,39.94468,3,13,41,38,"39.94468,116.35717","China, Bei Jing Shi, Hai Dian Qu, 西直门北大街6号院 邮政编码: 100082", 西直门北大街6号院 邮政编码
10,2008-02-03 13:41:55,116.35668,39.94453,3,13,41,55,"39.94453,116.35668","China, Bei Jing Shi, Hai Dian Qu, 国贸西直门 邮政编码: 100082", 国贸西直门 邮政编码
10,2008-02-03 13:44:14,116.35128,39.94297,3,13,44,14,"39.94297,116.35128","China, Bei Jing Shi, Xi Cheng Qu, 胡同1号 邮政编码: 100082", 胡同1号 邮政编码
10,2008-02-03 13:44:49,116.3493,39.94187,3,13,44,49,"39.94187,116.3493","China, Bei Jing Shi, Xi Cheng Qu, 新兴东巷11-8号后门 邮政编码: 100082", 新兴东巷11-8号后门 邮政编码
10,2008-02-03 13:44:57,116.38378,39.9413,3,13,44,57,"39.9413,116.38378","1 Yangfang Hu Tong, Xi Cheng Qu, Bei Jing Shi, China, 100035",1 Yangfang Hu Tong
10,2008-02-03 13:44:57,116.38378,39.9413,3,13,44,57,"39.9413,116.38378","1 Yangfang Hu Tong, Xi Cheng Qu, Bei Jing Shi, China, 100035",1 Yangfang Hu Tong
10,2008-02-03 13:46:30,116.34935,39.93627,3,13,46,30,"39.93627,116.34935","China, Bei Jing Shi, Xi Cheng Qu, 和平门榆树馆东里3栋 邮政编码: 100033", 和平门榆树馆东里3栋 邮政编码
10,2008-02-03 13:49:56,116.34943,39.92553,3,13,49,56,"39.92553,116.34943","China, Bei Jing Shi, Xi Cheng Qu, 北营房中街（近庆丰包子铺） 邮政编码: 100033", 北营房中街（近庆丰包子铺） 邮政编码
10,2008-02-03 13:49:59,116.34943,39.92533,3,13,49,59,"39.92533,116.34943","China, Bei Jing Shi, Xi Cheng Qu, 北营房中街57号 邮政编码: 100033", 北营房中街57号 邮政编码
10,2008-02-03 13:50:53,116.34978,39.92192,3,13,50,53,"39.92192,116.34978","China, Bei Jing Shi, Xi Cheng Qu, 月坛 Fuchengmen Outer St, 阜成门外大街甲10 邮政编码: 100033", 月坛 Fuchengmen Outer St
10,2008-02-03 13:51:17,116.34985,39.92095,3,13,51,17,"39.92095,116.34985","China, Bei Jing Shi, Xi Cheng Qu, 月坛 Shui Dian Bu Su She, 40号宅 邮政编码: 100032", 月坛 Shui Dian Bu Su She
10,2008-02-03 13:52:12,116.35093,39.91793,3,13,52,12,"39.91793,116.35093","China, Bei Jing Shi, Xi Cheng Qu, 月坛月坛北街 邮政编码: 100032", 月坛月坛北街 邮政编码
10,2008-02-03 13:52:56,116.34982,39.91722,3,13,52,56,"39.91722,116.34982","China, Bei Jing Shi, Xi Cheng Qu, 月坛月坛西街 邮政编码: 100032", 月坛月坛西街 邮政编码
10,2008-02-03 13:52:59,116.34962,39.9171,3,13,52,59,"39.9171,116.34962","China, Bei Jing Shi, Xi Cheng Qu, 月坛月坛西街甲2号 邮政编码: 100032", 月坛月坛西街甲2号 邮政编码
10,2008-02-03 13:53:19,116.34765,39.9168,3,13,53,19,"39.9168,116.34765","22 Yue Tan Xi Jie Xi Li, 月坛 Xi Cheng Qu, Bei Jing Shi, China, 100045",22 Yue Tan Xi Jie Xi Li
10,2008-02-03 13:53:36,116.3477,39.91638,3,13,53,36,"39.91638,116.3477","25 Yue Tan Xi Jie Xi Li, 月坛 Xi Cheng Qu, Bei Jing Shi, China, 100045",25 Yue Tan Xi Jie Xi Li
10,2008-02-03 13:54:21,116.34047,39.91653,3,13,54,21,"39.91653,116.34047","China, Bei Jing Shi, Xi Cheng Qu, Sanlihe N St, 三里河一区甲39 邮政编码: 100045", Sanlihe N St
10,2008-02-03 13:54:24,116.3402,39.91653,3,13,54,24,"39.91653,116.3402","China, Bei Jing Shi, Xi Cheng Qu, 三里河一区41号楼一层 邮政编码: 100045", 三里河一区41号楼一层 邮政编码
10,2008-02-03 13:54:40,116.339,39.91667,3,13,54,40,"39.91667,116.339","China, Bei Jing Shi, Xi Cheng Qu, Sanlihe N St, 三里河北街甲3 邮政编码: 100037", Sanlihe N St
10,2008-02-03 13:55:29,116.33903,39.9169,3,13,55,29,"39.9169,116.33903","China, Bei Jing Shi, Xi Cheng Qu, 三里河北街甲3号 邮政编码: 100037", 三里河北街甲3号 邮政编码
10,2008-02-03 13:56:32,116.33327,39.91612,3,13,56,32,"39.91612,116.33327","China, Bei Jing Shi, Hai Dian Qu, 钓鱼台三里河路49号钓鱼台大酒店0392房间 邮政编码: 100037", 钓鱼台三里河路49号钓鱼台大酒店0392房间 邮政编码
10,2008-02-03 13:56:47,116.33318,39.91545,3,13,56,47,"39.91545,116.33318","China, Bei Jing Shi, Hai Dian Qu, 钓鱼台三里河路49号钓鱼台大酒店0392房间 邮政编码: 100037", 钓鱼台三里河路49号钓鱼台大酒店0392房间 邮政编码
10,2008-02-03 13:56:50,116.33318,39.91543,3,13,56,50,"39.91543,116.33318","China, Bei Jing Shi, Hai Dian Qu, 钓鱼台三里河路49号钓鱼台大酒店0392房间 邮政编码: 100037", 钓鱼台三里河路49号钓鱼台大酒店0392房间 邮政编码
10,2008-02-03 13:56:58,116.33317,39.91513,3,13,56,58,"39.91513,116.33317","China, Bei Jing Shi, Hai Dian Qu, 钓鱼台三里河路49号钓鱼台大酒店0392房间 邮政编码: 100037", 钓鱼台三里河路49号钓鱼台大酒店0392房间 邮政编码
10,2008-02-03 13:57:57,116.33293,39.91263,3,13,57,57,"39.91263,116.33293","China, Bei Jing Shi, Hai Dian Qu, 月坛南街3-3号 邮政编码: 100038", 月坛南街3-3号 邮政编码
10,2008-02-03 14:00:35,116.32838,39.90978,3,14,0,35,"39.90978,116.32838","China, Bei Jing Shi, Hai Dian Qu, 茂林居 邮政编码: 100038", 茂林居 邮政编码
10,2008-02-03 14:00:38,116.3282,39.9097,3,14,0,38,"39.9097,116.3282","China, Bei Jing Shi, Hai Dian Qu, 茂林居 邮政编码: 100038", 茂林居 邮政编码
10,2008-02-03 14:00:46,116.32725,39.90957,3,14,0,46,"39.90957,116.32725","China, Bei Jing Shi, Hai Dian Qu, 茂林居 邮政编码: 100038", 茂林居 邮政编码
10,2008-02-03 14:00:46,116.32725,39.90957,3,14,0,46,"39.90957,116.32725","China, Bei Jing Shi, Hai Dian Qu, 茂林居 邮政编码: 100038", 茂林居 邮政编码
10,2008-02-03 14:01:17,116.32388,39.90962,3,14,1,17,"39.90962,116.32388","9 Fuxing Rd, Hai Dian Qu, Bei Jing Shi, China, 100048",9 Fuxing Rd
10,2008-02-03 14:01:56,116.3212,39.9097,3,14,1,56,"39.9097,116.3212","China, Bei Jing Shi, Hai Dian Qu, 复兴路乙11号梅地亚宾馆1261室 邮政编码: 100048", 复兴路乙11号梅地亚宾馆1261室 邮政编码
10,2008-02-03 14:02:05,116.32103,39.90978,3,14,2,5,"39.90978,116.32103","China, Bei Jing Shi, Hai Dian Qu, 复兴路乙11号梅地亚宾馆1261室 邮政编码: 100048", 复兴路乙11号梅地亚宾馆1261室 邮政编码
10,2008-02-03 14:03:00,116.3149,39.9098,3,14,3,0,"39.9098,116.3149","5 Liu Lin Guan Nan Li, 古城 Hai Dian Qu, Bei Jing Shi, China, 100038",5 Liu Lin Guan Nan Li
10,2008-02-03 14:03:03,116.31483,39.90975,3,14,3,3,"39.90975,116.31483","5 Liu Lin Guan Nan Li, 古城 Hai Dian Qu, Bei Jing Shi, China, 100038",5 Liu Lin Guan Nan Li
10,2008-02-03 14:03:11,116.3148,39.90922,3,14,3,11,"39.90922,116.3148","China, Bei Jing Shi, Hai Dian Qu, 古城 Fuxing Rd, 17号国海广场 邮政编码: 100038", 古城 Fuxing Rd
10,2008-02-03 14:03:17,116.31482,39.90902,3,14,3,17,"39.90902,116.31482","China, Bei Jing Shi, Hai Dian Qu, 古城 Fuxing Rd, 17号国海广场 邮政编码: 100038", 古城 Fuxing Rd
10,2008-02-03 14:04:02,116.31487,39.90855,3,14,4,2,"39.90855,116.31487","15 Fuxing Rd, 古城 Hai Dian Qu, Bei Jing Shi, China, 100038",15 Fuxing Rd
10,2008-02-03 14:07:49,116.31485,39.90783,3,14,7,49,"39.90783,116.31485","China, Bei Jing Shi, Hai Dian Qu, 古城复兴路17号 邮政编码: 100038", 古城复兴路17号 邮政编码
10,2008-02-03 14:09:46,116.31483,39.90712,3,14,9,46,"39.90712,116.31483","China, Bei Jing Shi, Hai Dian Qu, 古城复兴路甲14号华鹰大厦G座 邮政编码: 100038", 古城复兴路甲14号华鹰大厦G座 邮政编码
10,2008-02-03 14:09:46,116.31483,39.90712,3,14,9,46,"39.90712,116.31483","China, Bei Jing Shi, Hai Dian Qu, 古城复兴路甲14号华鹰大厦G座 邮政编码: 100038", 古城复兴路甲14号华鹰大厦G座 邮政编码
10,2008-02-03 14:11:37,116.31492,39.90627,3,14,11,37,"39.90627,116.31492","China, Bei Jing Shi, Hai Dian Qu, 古城新兴桥 邮政编码: 100038", 古城新兴桥 邮政编码
10,2008-02-03 14:13:35,116.31498,39.89807,3,14,13,35,"39.89807,116.31498","3-2 Shi Fang Yuan, 古城 Hai Dian Qu, Bei Jing Shi, China, 100038",3-2 Shi Fang Yuan
10,2008-02-03 14:16:02,116.31065,39.89585,3,14,16,2,"39.89585,116.31065","62 W 3rd Ring Middle Rd, Hai Dian Qu, Bei Jing Shi, China, 100038",62 W 3rd Ring Middle Rd
10,2008-02-03 14:16:05,116.31062,39.89595,3,14,16,5,"39.89595,116.31062","62 W 3rd Ring Middle Rd, Hai Dian Qu, Bei Jing Shi, China, 100038",62 W 3rd Ring Middle Rd
10,2008-02-03 14:18:59,116.3106,39.90232,3,14,18,59,"39.90232,116.3106","China, Bei Jing Shi, Hai Dian Qu, 古城西三环中路18号 邮政编码: 100038", 古城西三环中路18号 邮政编码
10,2008-02-03 14:19:08,116.31063,39.90233,3,14,19,8,"39.90233,116.31063","China, Bei Jing Shi, Hai Dian Qu, 古城西三环中路18号 邮政编码: 100038", 古城西三环中路18号 邮政编码
10,2008-02-03 14:20:30,116.31072,39.90522,3,14,20,30,"39.90522,116.31072","China, Bei Jing Shi, Hai Dian Qu, 古城西三环路37号 邮政编码: 100038", 古城西三环路37号 邮政编码
10,2008-02-03 14:20:33,116.31077,39.90537,3,14,20,33,"39.90537,116.31077","China, Bei Jing Shi, Hai Dian Qu, 古城西三环中路 邮政编码: 100038", 古城西三环中路 邮政编码
10,2008-02-03 14:20:39,116.31083,39.90558,3,14,20,39,"39.90558,116.31083","China, Bei Jing Shi, Hai Dian Qu, 古城西三环中路 邮政编码: 100038", 古城西三环中路 邮政编码
10,2008-02-03 14:21:59,116.31075,39.90557,3,14,21,59,"39.90557,116.31075","China, Bei Jing Shi, Hai Dian Qu, 古城西三环中路 邮政编码: 100038", 古城西三环中路 邮政编码
10,2008-02-03 14:22:08,116.31085,39.90607,3,14,22,8,"39.90607,116.31085","China, Bei Jing Shi, Hai Dian Qu, 古城西三环中路 邮政编码: 100038", 古城西三环中路 邮政编码
10,2008-02-03 14:23:00,116.3169,39.90607,3,14,23,0,"39.90607,116.3169","3 Yangfangdian Rd, Hai Dian Qu, Bei Jing Shi, China, 100038",3 Yangfangdian Rd
10,2008-02-03 14:25:41,116.32923,39.90592,3,14,25,41,"39.90592,116.32923","China, Bei Jing Shi, Hai Dian Qu, 北蜂窝路2号 邮政编码: 100055", 北蜂窝路2号 邮政编码
10,2008-02-03 14:25:48,116.32935,39.90645,3,14,25,48,"39.90645,116.32935","China, Bei Jing Shi, Hai Dian Qu, 复兴路6-1号 邮政编码: 100055", 复兴路6-1号 邮政编码
10,2008-02-03 14:26:21,116.32902,39.90917,3,14,26,21,"39.90917,116.32902","China, Bei Jing Shi, Hai Dian Qu, 茂林居西路 邮政编码: 100038", 茂林居西路 邮政编码
10,2008-02-03 14:32:10,116.32858,39.92118,3,14,32,10,"39.92118,116.32858","2 Fucheng Rd, 钓鱼台 Hai Dian Qu, Bei Jing Shi, China, 100037",2 Fucheng Rd
10,2008-02-03 14:34:25,116.3282,39.92555,3,14,34,25,"39.92555,116.3282","China, Bei Jing Shi, Hai Dian Qu, 甘家口 邮政编码: 100037", 甘家口 邮政编码
10,2008-02-03 14:34:28,116.32825,39.9256,3,14,34,28,"39.9256,116.32825","China, Bei Jing Shi, Hai Dian Qu, 甘家口 邮政编码: 100037", 甘家口 邮政编码
10,2008-02-03 14:34:59,116.32817,39.92617,3,14,34,59,"39.92617,116.32817","3 Gan Jia Kou, Hai Dian Qu, Bei Jing Shi, China, 100037",3 Gan Jia Kou
10,2008-02-03 14:35:57,116.32878,39.92675,3,14,35,57,"39.92675,116.32878","China, Bei Jing Shi, Hai Dian Qu, 甘家口街道甘西社区 邮政编码: 100044", 甘家口街道甘西社区 邮政编码
10,2008-02-03 14:36:55,116.33463,39.9268,3,14,36,55,"39.9268,116.33463","China, Bei Jing Shi, Xi Cheng Qu, 三里河路9号 邮政编码: 100044", 三里河路9号 邮政编码
10,2008-02-03 14:37:31,116.33763,39.92668,3,14,37,31,"39.92668,116.33763","China, Bei Jing Shi, Xi Cheng Qu, 百万庄大街23号 邮政编码: 100044", 百万庄大街23号 邮政编码
10,2008-02-03 14:37:34,116.33773,39.9265,3,14,37,34,"39.9265,116.33773","China, Bei Jing Shi, Xi Cheng Qu, Baiwanzhuang S St, 10号-1 邮政编码: 100044", Baiwanzhuang S St
10,2008-02-03 14:38:13,116.33817,39.92228,3,14,38,13,"39.92228,116.33817","China, Bei Jing Shi, Xi Cheng Qu, 阜成门外大街甲40号 邮政编码: 100037", 阜成门外大街甲40号 邮政编码
10,2008-02-03 14:39:48,116.3386,39.91723,3,14,39,48,"39.91723,116.3386","China, Bei Jing Shi, Xi Cheng Qu, 三里河北街3-8号 邮政编码: 100037", 三里河北街3-8号 邮政编码
10,2008-02-03 14:41:03,116.33863,39.91717,3,14,41,3,"39.91717,116.33863","China, Bei Jing Shi, Xi Cheng Qu, 三里河北街3-8号 邮政编码: 100037", 三里河北街3-8号 邮政编码
10,2008-02-03 14:41:10,116.33908,39.91697,3,14,41,10,"39.91697,116.33908","China, Bei Jing Shi, Xi Cheng Qu, 三里河北街甲3号 邮政编码: 100037", 三里河北街甲3号 邮政编码
10,2008-02-03 14:41:21,116.3403,39.917,3,14,41,21,"39.917,116.3403","China, Bei Jing Shi, Xi Cheng Qu, 三里河北街,与月坛北街路口以南65米路东巷内30 邮政编码: 100037", 三里河北街
10,2008-02-03 14:41:24,116.34032,39.91697,3,14,41,24,"39.91697,116.34032","China, Bei Jing Shi, Xi Cheng Qu, 三里河北街,与月坛北街路口以南65米路东巷内30 邮政编码: 100037", 三里河北街
10,2008-02-03 14:41:46,116.34023,39.9156,3,14,41,46,"39.9156,116.34023","China, Bei Jing Shi, Xi Cheng Qu, Sanlihe N St, 三里河一区39 邮政编码: 100045", Sanlihe N St
10,2008-02-03 14:41:54,116.3397,39.91557,3,14,41,54,"39.91557,116.3397","China, Bei Jing Shi, Xi Cheng Qu, 三里河北街12号 邮政编码: 100037", 三里河北街12号 邮政编码
10,2008-02-03 14:41:57,116.33957,39.91553,3,14,41,57,"39.91553,116.33957","China, Bei Jing Shi, Xi Cheng Qu, 三里河北街12号 邮政编码: 100037", 三里河北街12号 邮政编码
10,2008-02-03 14:42:43,116.33863,39.91447,3,14,42,43,"39.91447,116.33863","77 Yuetan S St, Xi Cheng Qu, Bei Jing Shi, China, 100045",77 Yuetan S St
10,2008-02-03 14:42:46,116.33858,39.91457,3,14,42,46,"39.91457,116.33858","77 Yuetan S St, Xi Cheng Qu, Bei Jing Shi, China, 100045",77 Yuetan S St
10,2008-02-03 14:42:46,116.33858,39.91457,3,14,42,46,"39.91457,116.33858","77 Yuetan S St, Xi Cheng Qu, Bei Jing Shi, China, 100045",77 Yuetan S St
10,2008-02-03 14:43:09,116.33845,39.91597,3,14,43,9,"39.91597,116.33845","China, Bei Jing Shi, Xi Cheng Qu, 三里河北街3-4号 邮政编码: 100037", 三里河北街3-4号 邮政编码
10,2008-02-03 14:44:45,116.33862,39.92027,3,14,44,45,"39.92027,116.33862","China, Bei Jing Shi, Xi Cheng Qu, 复兴门月坛北街25号院36栋 邮政编码: 100037", 复兴门月坛北街25号院36栋 邮政编码
10,2008-02-03 14:44:48,116.33872,39.92032,3,14,44,48,"39.92032,116.33872","China, Bei Jing Shi, Xi Cheng Qu, 月坛北街25-35号 邮政编码: 100037", 月坛北街25-35号 邮政编码
10,2008-02-03 14:45:08,116.34032,39.9203,3,14,45,8,"39.9203,116.34032","China, Bei Jing Shi, Xi Cheng Qu, 阜外月坛北小街南门2号 邮政编码: 100037", 阜外月坛北小街南门2号 邮政编码
10,2008-02-03 14:45:11,116.34035,39.92037,3,14,45,11,"39.92037,116.34035","China, Bei Jing Shi, Xi Cheng Qu, 阜外月坛北小街南门2号 邮政编码: 100037", 阜外月坛北小街南门2号 邮政编码
10,2008-02-03 14:45:35,116.34058,39.92185,3,14,45,35,"39.92185,116.34058","18 Fuchengmen Outer St, Xi Cheng Qu, Bei Jing Shi, China, 100037",18 Fuchengmen Outer St
10,2008-02-03 14:46:05,116.34555,39.92212,3,14,46,5,"39.92212,116.34555","China, Bei Jing Shi, Xi Cheng Qu, 月坛月坛北小街1号 邮政编码: 100037", 月坛月坛北小街1号 邮政编码
10,2008-02-03 14:46:17,116.34662,39.92212,3,14,46,17,"39.92212,116.34662","China, Bei Jing Shi, Xi Cheng Qu, 月坛 Yuetan N St, 月坛北小街乙2号 邮政编码: 100037", 月坛 Yuetan N St
10,2008-02-03 14:46:25,116.34673,39.92212,3,14,46,25,"39.92212,116.34673","China, Bei Jing Shi, Xi Cheng Qu, 月坛 Yuetan N St, 月坛北小街乙2号 邮政编码: 100037", 月坛 Yuetan N St
10,2008-02-03 14:47:00,116.34672,39.9221,3,14,47,0,"39.9221,116.34672","China, Bei Jing Shi, Xi Cheng Qu, 月坛 Yuetan N St, 月坛北小街乙2号 邮政编码: 100037", 月坛 Yuetan N St
10,2008-02-03 14:47:05,116.34672,39.92212,3,14,47,5,"39.92212,116.34672","China, Bei Jing Shi, Xi Cheng Qu, 月坛 Yuetan N St, 月坛北小街乙2号 邮政编码: 100037", 月坛 Yuetan N St
10,2008-02-03 14:47:18,116.34687,39.92272,3,14,47,18,"39.92272,116.34687","China, Bei Jing Shi, Xi Cheng Qu, 月坛阜外大街22号 邮政编码: 100044", 月坛阜外大街22号 邮政编码
10,2008-02-03 14:47:21,116.34688,39.9228,3,14,47,21,"39.9228,116.34688","China, Bei Jing Shi, Xi Cheng Qu, 月坛阜外大街22号 邮政编码: 100044", 月坛阜外大街22号 邮政编码
10,2008-02-03 14:47:56,116.34722,39.92513,3,14,47,56,"39.92513,116.34722","6-9 Fu Wai Bei Si Xiang, Xi Cheng Qu, Bei Jing Shi, China, 100044",6-9 Fu Wai Bei Si Xiang
10,2008-02-03 14:48:14,116.34727,39.9261,3,14,48,14,"39.9261,116.34727","12 Bei Ying Fang Xi Li, Xi Cheng Qu, Bei Jing Shi, China, 100044",12 Bei Ying Fang Xi Li
10,2008-02-03 14:49:33,116.34723,39.92892,3,14,49,33,"39.92892,116.34723","China, Bei Jing Shi, Xi Cheng Qu, 百万庄大街21号 邮政编码: 100044", 百万庄大街21号 邮政编码
10,2008-02-03 14:49:57,116.34725,39.92932,3,14,49,57,"39.92932,116.34725","China, Bei Jing Shi, Xi Cheng Qu, 百万庄大街21号 邮政编码: 100044", 百万庄大街21号 邮政编码
10,2008-02-03 14:51:03,116.34728,39.93038,3,14,51,3,"39.93038,116.34728","China, Bei Jing Shi, Xi Cheng Qu, 官园批发市场 邮政编码: 100044", 官园批发市场 邮政编码
10,2008-02-03 14:51:18,116.34742,39.93107,3,14,51,18,"39.93107,116.34742","China, Bei Jing Shi, Xi Cheng Qu, 车公庄大街3号锦官苑3号3-2-902室 邮政编码: 100044", 车公庄大街3号锦官苑3号3-2-902室 邮政编码
10,2008-02-03 14:51:21,116.3476,39.93117,3,14,51,21,"39.93117,116.3476","China, Bei Jing Shi, Xi Cheng Qu, 车公庄大街3号锦官苑3号3-2-902室 邮政编码: 100044", 车公庄大街3号锦官苑3号3-2-902室 邮政编码
10,2008-02-03 14:53:32,116.34975,39.931,3,14,53,32,"39.931,116.34975","China, Bei Jing Shi, Xi Cheng Qu, 车公庄大街4-7号 邮政编码: 100033", 车公庄大街4-7号 邮政编码
10,2008-02-03 14:53:38,116.3499,39.93132,3,14,53,38,"39.93132,116.3499","China, Bei Jing Shi, Xi Cheng Qu, 车公庄大街4号-6 邮政编码: 100033", 车公庄大街4号-6 邮政编码
10,2008-02-03 14:54:26,116.34978,39.93647,3,14,54,26,"39.93647,116.34978","China, Bei Jing Shi, Xi Cheng Qu, 西直门外南路6号 邮政编码: 100033", 西直门外南路6号 邮政编码
10,2008-02-03 14:54:29,116.34993,39.93652,3,14,54,29,"39.93652,116.34993","China, Bei Jing Shi, Xi Cheng Qu, 西直门外南路 邮政编码: 100033", 西直门外南路 邮政编码
10,2008-02-03 14:54:55,116.35242,39.93663,3,14,54,55,"39.93663,116.35242","China, Bei Jing Shi, Xi Cheng Qu, 北礼士路,与西直门外南路路口以南30米路西侧内 邮政编码: 100033", 北礼士路
10,2008-02-03 14:56:05,116.3525,39.93875,3,14,56,5,"39.93875,116.3525","2 Beilishi Rd, Xi Cheng Qu, Bei Jing Shi, China, 100033",2 Beilishi Rd
